t,x,y,z,vx,vy,vz,roll,pitch,yaw,p,q,r,mass,speed,airspeed,mach,q_dyn,rho,cd_eff,thrust,wind_x,wind_y,roll_ref,pitch_ref,yaw_ref,alpha_pitch_deg,beta_yaw_deg,gimbal_pitch_deg,gimbal_yaw_deg
0.0,0.0,0.0,0.0,1.5308084989341915e-15,0.0,25.0,0.0,1.5707963267948966,0.0,0.0,0.0,0.0,30.0,25.0,25.0,0.07346625523104375,382.81633312209203,1.2250122659906946,0.22,297.5,0.0,8.0,0.0,1.5707963267948966,0.0,0.0,0.0,0.0,0.0
0.02,3.061616997868383e-17,0.0,0.5,-2.1706498613020898e-08,0.0032018182172829086,24.64156807347074,0.0,1.5533430342749535,0.0,0.032813664959731675,-2.4559354459686416e-07,0.05670201305041633,29.986666666666668,25.0,26.248809496813376,0.07713606952015746,422.01672563379435,1.2250122659906946,7.128747237418012,297.5,0.0,8.0,0.0,1.5707963267948966,0.11166746070712286,0.0001754177324628238,-89.99999999283803,0.0,0.0
0.04,-4.34129941644248e-10,6.403636434565817e-05,0.9928313614694149,-0.008597048066754077,0.006321941208761226,24.316051539908532,0.06562539634009878,1.5533430293630826,0.06497901966033126,0.06362739069698252,-0.12273509703476937,0.10921100495473038,29.973333333333336,24.641568281485906,25.90663606826813,0.07613097083879396,411.06608168420155,1.2249534647800198,14.037469838885873,297.5,0.0,7.999883333333333,0.0,1.5707963267948966,0.11166746070712286,89.99999986677092,-89.99999999283506,0.0,0.0
0.06,-0.0001719413954650232,0.0001904751885208827,1.4791523922675855,-0.016912806861845667,0.009524194441823109,23.98883194753149,0.182540175224434,1.5507503739042807,0.18063886629549497,0.09025353311257445,-0.23664922714198255,0.1578813134384885,29.960000000000004,24.316053881492863,25.59620326768532,0.07521913039645271,401.25471376052434,1.224895508731692,14.037469429277401,297.5,0.0,7.99976833934899,0.0,1.5707963267948966,0.1116674019940147,89.99999986361726,-89.9999999928071,0.0,0.0
0.08,-0.0005101975327019366,0.00038095907735734486,1.9589290312182155,-0.02463724472967055,0.012996006666858101,23.65990739228015,0.29637254731255025,1.5455228263501093,0.29268868002879156,0.11116947842368752,-0.34218998354495556,0.20290797414784684,29.946666666666673,23.988839800211746,25.284511709218705,0.07430357525176902,391.523569648247,1.224838320342506,14.037469027471262,297.5,0.0,7.999654864441804,0.0,1.5707963267948966,0.11166726241889569,89.99999987846225,-89.99999999274995,0.0,0.0
0.1,-0.0010029424272953477,0.0006408792106945069,2.4321271790638184,-0.031470903828856645,0.016915225235038456,23.329282021934002,0.37306447772247564,1.5377922044075678,0.3671810105854396,0.1268868058237763,-0.43978327520198757,0.24447667633138143,29.93333333333334,23.65992378900004,24.97151890352316,0.07338418065285783,381.8727633208338,1.2247819035355463,14.037468631773054,297.5,0.0,7.999542916559382,0.0,1.5707963267948966,0.11166704124949423,89.99999990075783,-89.99999999266544,0.0,0.0
0.12000000000000001,-0.0016323605038724806,0.000979183715395276,2.8987128195024985,-0.03711048212746631,0.021415733742382172,22.996966381242135,0.4164138813704219,1.5278194581286852,0.4080149157149191,0.13901858816638601,-0.5298346831443559,0.28276424822516466,29.92000000000001,23.329309381153262,24.657189056683762,0.07246084152426609,372.30268233086554,1.224726262238924,14.037468240802228,297.5,0.0,7.999432503658219,0.0,1.5707963267948966,0.1116667351695031,89.99999992192257,-89.99999999256035,0.0,0.0
0.14,-0.002374570146421807,0.0014074983902429194,3.358652147127341,-0.041254632268664264,0.02660454854531931,22.662979886611932,0.43979329874631734,1.5158408324351687,0.4286329993130149,0.14890204420586914,-0.6127306183524525,0.3179391643389712,29.906666666666677,22.997006295635884,24.34150476835151,0.07153350684555052,362.81432421775406,1.2246714003715604,14.037467854035292,297.5,0.0,7.999323633675449,0.0,1.5707963267948966,0.11166633842512264,89.9999999387996,-89.99999999243829,0.0,0.0
0.16,-0.003199662791795092,0.0019395893611493056,3.8119117448595796,-0.04361333235903612,0.03258171266381812,22.327353147338943,0.4525193799179017,1.5020451053108097,0.4383957782058898,0.15732105343385386,-0.6888393918605749,0.35016201390735263,29.893333333333345,22.66303305137386,24.024464565444195,0.07060217240500567,353.4091886971406,1.2246173218281613,14.037467471452743,297.5,0.0,7.999216314499003,0.0,1.5707963267948966,0.1116658436417981,89.9999999513895,-89.99999999229941,0.0,0.0
0.18,-0.004071929438975814,0.002591223614425668,4.258458807806359,-0.04391067772607528,0.039445112883498216,21.990129101447682,0.4596549317012779,1.4865929273862823,0.44239435529689386,0.1646957731406747,-0.7585121906225197,0.3795859275630469,29.880000000000013,22.327419516297574,23.70607901926025,0.06966686939010783,344.08913407598664,1.2245640304583896,14.037467093193612,297.5,0.0,7.999110553926199,0.0,1.5707963267948966,0.11166524231148456,89.99999996063808,-89.99999999214285,0.0,0.0
0.19999999999999998,-0.00495014299349732,0.003380125872095632,4.698261389835312,-0.041884846522543207,0.0472895876809305,21.651363506514485,0.4638212212321968,1.46962928784838,0.44326983118667096,0.17125385452626007,-0.822083996673403,0.40635697909260554,29.86666666666668,21.99020832013387,23.38637041711195,0.06872766342357624,334.8563442258539,1.2245115300405622,14.037466719407371,297.5,0.0,7.999006359611512,0.0,1.5707963267948966,0.11166452488932421,89.99999996748096,-89.99999999196777,0.0,0.0
0.21999999999999997,-0.005787839923948185,0.004325917625714242,5.131288659965602,-0.03728773856085435,0.05620536475066505,21.311125111690547,0.4663893461584556,1.4512888497631637,0.44240847488890367,0.17712503771631494,-0.879874463083209,0.4306145683180299,29.85333333333335,21.651455663227324,23.065373693985467,0.06778465730234286,325.7133316364851,1.2244598242526996,14.037466350220186,297.5,0.0,7.998903739009038,0.0,1.5707963267948966,0.11166368079429123,89.99999997262432,-89.99999999177335,0.0,0.0
0.23999999999999996,-0.006533594695165272,0.005450024920727543,5.557511162199413,-0.02886224904045495,0.0667613062757551,20.960072450063205,0.4680957151919767,1.4316981739572983,0.4405591528349895,0.1823885834211145,-0.9321887478824217,0.45249178560809755,29.840000000000018,21.311231849534206,22.743137345594295,0.0668379936818722,316.66293747541664,1.224408916642417,14.037465985737308,311.66666666666663,0.0,7.998802699312675,0.0,1.5707963267948966,0.11166269842627008,89.9999999765611,-89.99999999155888,0.0,0.0
0.25999999999999995,-0.007110839675974371,0.006785251046242645,5.976712611200677,-0.01484866808534381,0.07975104703031208,20.588895381411277,0.4693470640566715,1.410976752486878,0.4381393583007398,0.18708808265201554,-0.979244670243471,0.47208262192100986,29.826666666666686,20.96019864441494,22.410737897236057,0.06586144808891069,307.4617026637841,1.2243588105964207,14.037465616130534,340.0,0.0,7.998703247395487,0.0,1.5707963267948966,0.11166156521275328,89.9999999796276,-89.99999999132365,0.0,0.0
0.27999999999999997,-0.007407813037681247,0.008380271986848887,6.3884905188289025,0.00570815510170955,0.09557013216210114,20.197728185175237,0.4703737267774324,1.389239197302098,0.43538921153215515,0.19124454132669413,-1.021181419810014,0.4894458782550126,29.813333333333354,20.589055192969514,22.059263095291765,0.06482882839733396,297.88129676547743,1.2243095314645256,14.037465232274394,368.3333333333333,0.0,7.9986054337240535,0.0,1.5707963267948966,0.11166026160702058,89.99999998205466,-89.99999999106713,0.0,0.0
0.3,-0.0072936499356470565,0.01029167463009091,6.792445082532407,0.0338041947196529,0.11462256786547227,19.786757269001566,0.47130855031840957,1.366597068081492,0.4324508485125764,0.1948722641066146,-1.0581396792896993,0.5046412115354436,29.800000000000022,20.197955096380877,21.688815199108134,0.06374043429357734,287.9490968645277,1.2242611264826968,14.037464835352912,396.66666666666663,0.0,7.998509352212273,0.0,1.5707963267948966,0.1116587583484061,89.99999998400344,-89.99999999078884,0.0,0.0
0.32,-0.0066175660412539986,0.012584125987400356,7.188180227912438,0.07046640017326955,0.13731622330910362,19.356224071759513,0.4722286397134412,1.343158877498694,0.4294103216520133,0.1979823435812166,-1.0902623556948514,0.5177294548387498,29.78666666666669,19.787118139815888,21.299556112157855,0.0625967408055179,277.6951691600297,1.2242136425668741,14.03746442661829,425.0,0.0,7.998415096147409,0.0,1.5707963267948966,0.11165702154872958,89.99999998558818,-89.99999999048843,0.0,0.0
0.34,-0.005208238037788608,0.015330450453582428,7.575304709347629,0.11674284264729261,0.1640583753239951,18.906427063560354,0.47317839139583295,1.3190300532593717,0.42632072184957126,0.20058464805279622,-1.117695291004965,0.5287729287803555,29.77333333333336,19.356839400452227,20.891716051280532,0.06139842378713016,267.1523176013177,1.224167126190746,14.037464007390122,453.3333333333333,0.0,7.998322757946821,0.0,1.5707963267948966,0.11165501264869926,89.9999999868912,-89.99999999016573,0.0,0.0
0.36000000000000004,-0.0028733811848427556,0.01861161796006233,7.953433250618835,0.17369293364722643,0.19525144447477932,18.437722776671286,0.47418259711130384,1.2943128735086198,0.4232153339189564,0.20268898165051044,-1.140587943209879,0.5378357399775243,29.760000000000026,18.907499262238534,20.465602759332018,0.06014638700047667,256.3560989342257,1.2241216232567078,14.03746357905272,481.66666666666674,0.0,7.998232428901153,0.0,1.5707963267948966,0.11165268843126697,89.99999998797286,-89.99999998982081,0.0,0.0
0.38000000000000006,0.0006004774881017733,0.022516646849557915,8.322187706152262,0.24237780501025868,0.23128896838739246,17.95052582931981,0.4752541031472166,1.2691063830145266,0.4201153260905288,0.20430577291008253,-1.1590940290002536,0.5449840626378161,29.746666666666695,18.439574657544345,20.021611467655934,0.0588417914016011,245.34480373567587,1.2240771789621767,14.037463143051188,510.00000000000006,0.0,7.9981441989081885,0.0,1.5707963267948966,0.11165000108924339,89.99999998887812,-89.99999998945403,0.0,0.0
0.4000000000000001,0.005448033588306946,0.027142426217305764,8.681198222738658,0.3238509480599192,0.27255185583858854,17.445307932139027,0.47639839376971604,1.2435062938378971,0.4170343512204804,0.20544648619269343,-1.1733721199685268,0.5502863995931283,29.733333333333363,17.953651972129148,19.560235892397206,0.0574860874649814,234.15940403060478,1.2240338376634945,14.037462700886506,538.3333333333334,0.0,7.998058156201898,0.0,1.5707963267948966,0.11164689834378283,89.99999998964094,-89.99999998906611,0.0,0.0
0.4200000000000001,0.01192505254950533,0.03259346333407753,9.030104381381438,0.41914921383351533,0.3194049620902721,16.922595894063086,0.47761639006863943,1.217604872724742,0.413981355677576,0.2061238651319397,-1.183586185028706,0.553813819480517,29.72000000000003,17.45044219490822,19.082080640484296,0.0560810516510316,222.84346901377336,1.2239916427398072,14.037462254110174,566.6666666666669,0.0,7.997974387081361,0.0,1.5707963267948966,0.1116433236097536,89.99999999028735,-89.99999998865829,0.0,0.0
0.4400000000000001,0.020308036826175636,0.03898156257588298,9.3685562992627,0.5292842767505272,0.3721940218616692,16.382968670383907,0.47890618852120825,1.1914908169058016,0.4109623227582033,0.20635207106128425,-1.1899060728174333,0.5556401672461773,29.7066666666667,16.930799077037857,18.58787551151319,0.0546288284456427,211.44305123463081,1.2239506364593078,14.037461804318852,595.0000000000001,0.0,7.997892975644344,0.0,1.5707963267948966,0.11163921620347628,89.99999999083745,-89.99999998823237,0.0,0.0
0.46000000000000013,0.030893722361186184,0.046425443013116366,9.696215672670379,0.6552346608434744,0.4312429710765486,15.82705351990473,0.48026415633431485,1.1652491198172878,0.4079813689517957,0.2061467535986414,-1.1925079290605323,0.5558422456995619,29.693333333333367,16.395741297370652,18.07849231560027,0.05313197979411452,200.0065463344222,1.2239108598501784,14.037461353149444,623.3333333333335,0.0,7.997814003530172,0.0,1.5707963267948966,0.11163451158785076,89.99999999130709,-89.99999998779082,0.0,0.0
0.48000000000000015,0.04399841557805567,0.05505030243464734,10.012756743068474,0.7979384209643566,0.49685168217657266,15.255521360140584,0.4816856294532261,1.138960928237987,0.4050414394688939,0.20552507586248164,-1.191574545235239,0.5544999664510777,29.680000000000035,15.846479927188948,17.55496498973097,0.05159354422932962,188.5845300372219,1.2238723525785007,14.037460902275257,651.6666666666669,0.0,7.997737549676377,0.0,1.5707963267948966,0.11162914164950433,89.99999999170876,-89.99999998733679,0.0,0.0
0.5000000000000001,0.0599571839973428,0.06498733607817879,10.317867170271285,0.9582865615466518,0.5692941305355614,14.669081428816556,0.4831653613333078,1.1127033923675178,0.40214475122996074,0.2045057082482077,-1.1872956362832512,0.5516964692087425,29.666666666666703,15.284452861893303,17.018513991282088,0.050017108570543416,177.22957657732783,1.2238351528352003,14.037460453403671,680.0000000000002,0.0,7.997663690093284,0.0,1.5707963267948966,0.11162303500230752,89.99999999205244,-89.99999998687431,0.0,0.0
0.5200000000000001,0.07912291522827584,0.07637321868889002,10.611248798847615,1.1371172629922548,0.6488170015883314,14.06847537606142,0.48469781340379203,1.0865495104026364,0.39929307411176307,0.20310879965325618,-1.1798680465872875,0.547518209065786,29.65333333333337,14.71136835601481,16.470576180884482,0.048406895755431244,165.99606308383358,1.2237992972339204,14.037460008276172,708.3333333333336,0.0,7.99759249766027,0.0,1.5707963267948966,0.11161611731140253,89.99999999234618,-89.99999998640826,0.0,0.0
0.5400000000000001,0.10186526048812095,0.08934955872065665,10.892618306368844,1.3352109711065983,0.7356387399857297,13.454470924338198,0.48627734402357614,1.0605679691822658,0.39648790700262904,0.20135593203566507,-1.1694958848679153,0.5420550120616574,29.64000000000004,14.129260369113155,15.912841677137921,0.046767873162624055,154.939964632265,1.2237648207214455,14.037459568671228,736.6666666666669,0.0,7.997524041946935,0.0,1.5707963267948966,0.1116083116318034,89.99999999259644,-89.9999999859443,0.0,0.0
0.5600000000000002,0.12856947991025292,0.10406233352037125,11.161707724855608,1.5532863888364756,0.8299490337059581,12.827855242060416,0.48789833195796994,1.0348229824586337,0.39373058440532827,0.19927006238937076,-1.1563905900433167,0.5354000999232006,29.626666666666708,13.54055909285112,15.347299462997826,0.04510588665580463,144.11864471062586,1.2237317565020138,14.037459136411043,765.0000000000002,0.0,7.997458389061848,0.0,1.5707963267948966,0.11159953875566764,89.99999999280857,-89.99999998548893,0.0,0.0
0.5800000000000002,0.15963520768698242,0.12066131419449042,11.418264829696817,1.7919973925292587,0.9319087178922549,12.18942818190651,0.48955525753800533,1.009374128308881,0.3910223364670262,0.19687545513512744,-1.1407709313807612,0.5276500854720896,29.613333333333376,12.94818072609241,14.776293818804046,0.04342782644793381,133.59064573563748,1.223700135976518,14.037458713372851,793.3333333333336,0.0,7.997395601530867,0.0,1.5707963267948966,0.11158971756245517,89.99999999298689,-89.99999998504929,0.0,0.0
0.6000000000000002,0.19547515553756759,0.1392994885523355,11.662053393334947,2.0519308776960314,1.0416500755330496,11.539995536092384,0.4912427565608972,0.9842761871292351,0.3883643172543221,0.19419760727050905,-1.1228629474174012,0.5189049407021753,29.600000000000044,12.355641137357944,14.202593884078837,0.04174183155183272,123.41548400206877,1.2236699886972726,14.037458301505886,821.666666666667,0.0,7.997335738206404,0.0,1.5707963267948966,0.11157876536646683,89.99999999313495,-89.99999998463296,0.0,0.0
0.6200000000000002,0.23651377309148822,0.1601324900629965,11.892853304056795,2.3336055224713603,1.1592775052072588,10.880362458451916,0.4929556568085083,0.9595789815548974,0.3857576109745384,0.19126316822148895,-1.1028998291077132,0.5092679399717988,29.586666666666712,11.767198144831784,13.629478676993072,0.04005753966204454,113.65345306624269,1.2236413423386576,14.037457902854777,850.0,0.0,7.997278854208222,0.0,1.5707963267948966,0.11156659825659077,89.99999999325567,-89.99999998424775,0.0,0.0
0.6400000000000002,0.28318588354091545,0.1833180401671417,12.110460553225833,2.6272880353316577,1.2807329951829518,10.22701236025844,0.49468900369874413,0.9353272195267213,0.3832032225633313,0.1880998560842886,-1.0811217534400763,0.49884558110997,29.57333333333338,11.188026023203477,13.060839479742134,0.0383863880765446,104.36543907075297,1.2236142226835929,14.037457519590344,850.0,0.0,7.99722500089572,0.0,1.5707963267948966,0.11155313142353451,89.99999999335145,-89.99999998390132,0.0,0.0
0.6600000000000003,0.3357316442475486,0.20893270007080075,12.315000800431001,2.9326074282250922,1.4058295755955448,9.580227185450662,0.4964380793733483,0.9115603415851101,0.38070205693858483,0.18474301650109157,-1.0578345847455919,0.48777399717707387,29.56000000000005,10.636479739200658,12.51419222494049,0.03677985777933296,95.81005485922859,1.223588653625457,14.037457162343077,850.0,0.0,7.997174225870914,0.0,1.5707963267948966,0.11153827947035921,89.99999999342455,-89.99999998359989,0.0,0.0
0.6800000000000003,0.39438379281205044,0.23704929158271165,12.506605344140015,3.249168090094646,1.5343763564445436,8.940251218677602,0.4981984283659857,0.8883110848073983,0.37825473476917715,0.18122660235695381,-1.0333303969199503,0.47618318782021,29.546666666666717,10.117178265136383,11.99275341179541,0.03524740349281879,87.99028476261557,1.2235646203251207,14.037456831511896,850.0,0.0,7.997126499813233,0.0,1.5707963267948966,0.11152200458684458,89.9999999934768,-89.99999998334877,0.0,0.0
0.7000000000000003,0.45936715461394334,0.26773681871160254,12.685410368513567,3.576554804408577,1.666180552384322,8.307291796569102,0.49996588285775,0.8656057863115771,0.3758616170773581,0.1775831547009918,-1.0078877404365383,0.4641971359595244,29.533333333333385,9.635325419204671,11.500075942298382,0.0337994686668264,80.90779041172874,1.2235421072862438,14.037456527610152,850.0,0.0,7.997081792086368,0.0,1.5707963267948966,0.1115042712795602,89.99999999350977,-89.999999983152,0.0,0.0
0.7200000000000003,0.5308982507021149,0.301060429759289,12.851556204444949,3.9143374799143356,1.8010493000719718,7.68152052975913,0.5017365777500666,0.8434646812329176,0.37352281717712055,0.17384379133621675,-0.9817719174311097,0.4519339282732834,29.520000000000053,9.196684125021697,11.040046354324803,0.032447477342990166,74.56298069640896,1.2235210984436744,14.03745625127067,850.0,0.0,7.9970400709140135,0.0,1.5707963267948966,0.11148504637068157,89.99999999352465,-89.99999998301223,0.0,0.0
0.7400000000000003,0.6091850003004017,0.3370814157607284,13.005186615040131,4.262075564231306,1.9387912646699337,7.0630749735619585,0.5035069589471588,0.821902194935419,0.37123820387428497,0.17003820295645045,-0.9552352672281257,0.43950588054024464,29.50666666666672,8.807472630503193,10.616855315261903,0.031203747428027725,68.95509096028862,1.223501577250159,14.037456003242585,850.0,0.0,7.997001303552296,0.0,1.5707963267948966,0.11146429897380239,89.99999999352245,-89.99999998293062,0.0,0.0
0.7600000000000003,0.6944265115850278,0.3758572410541271,13.14644811451137,4.619322118688757,2.0792180362032937,6.45206068344225,0.5052737871399797,0.8009272291707967,0.36900739875001776,0.16619465650928394,-0.9285174637392567,0.42701966847543554,29.49333333333339,8.474150563055586,10.234929933096932,0.03008129174291381,64.08226866522457,1.2234835267601774,14.037455784376409,850.0,0.0,7.996965456456491,0.0,1.5707963267948966,0.11144200044977293,89.9999999935039,-89.99999998290679,0.0,0.0
0.7800000000000004,0.7868129539588029,0.417441601778193,13.275489328180216,4.985627541112837,2.2221453200731744,5.8485535914534035,0.5070341386277946,0.7805434418694546,0.3668297695771474,0.1623400053194821,-0.9018458253262317,0.41457646431857903,29.480000000000057,8.203070860421818,9.89881651108288,0.029093473418192586,59.94166294768941,1.2234669297098244,14.037455595593586,850.0,0.0,7.996932495439947,0.0,1.5707963267948966,0.11141812434558052,89.9999999934696,-89.99999998293895,0.0,0.0
0.8000000000000004,0.8865255047810596,0.4618845081796565,13.392460400009284,5.360542930855183,2.3673939290826485,5.252602641363863,0.5087854041971545,0.760749520238456,0.3647044213733368,0.15849970540401329,-0.87543563699078,0.40227207910650326,29.466666666666725,7.999999432145508,9.613005786913778,0.028253492242148057,56.52951571926373,1.2234517685918707,14.037455437837982,850.0,0.0,7.996902385823424,0.0,1.5707963267948966,0.11139264631919232,89.99999999341988,-89.99999998302413,0.0,0.0
0.8200000000000004,0.9937363633981633,0.5092323867613094,13.497512452836562,5.743623097081049,2.514790586820185,4.6642326229650415,0.5105252867285555,0.7415394468484946,0.36263018620564313,0.15469783733874284,-0.8494904841370317,0.3901971102833856,29.453333333333394,7.8695494812004,9.381700975393562,0.027573702898812502,53.84125222143366,1.223438025725227,14.037455312009069,850.0,0.0,7.996875092573331,0.0,1.5707963267948966,0.11136554405317467,89.99999999335496,-89.99999998315829,0.0,0.0
0.8400000000000004,1.1086088253397843,0.5595281984977132,13.590797105295863,6.134429217098611,2.664168554170517,4.083447149781413,0.5122517979686787,0.7229027584128396,0.3606056125786483,0.15095713299125804,-0.8242025966458425,0.37843709407533827,29.44000000000006,7.81463012163811,9.208542447964605,0.027064805753491485,51.87156921899532,1.2234256833182058,14.03745521888095,850.0,0.0,7.9968505804276715,0.0,1.5707963267948966,0.11133679715973255,89.99999999327488,-89.9999999833367,0.0,0.0
0.8600000000000004,1.2312974096817566,0.6128115695811235,13.672466048291492,6.532838349349557,2.815460803987964,3.509963328237098,0.5139632547560322,0.7048247969936874,0.35862895502998615,0.14716118983966353,-0.7995335391598679,0.3668345148442908,29.42666666666673,7.836042147007764,9.09631946951673,0.026734999595424396,50.61451929576138,1.22341472352513,13.362675809264212,850.0,0.0,7.996828814008764,0.0,1.5707963267948966,0.11130638707964335,88.69182181368728,-86.84830809990319,0.0,0.0
0.8800000000000004,1.3619541766687477,0.6691207856608827,13.742665314856234,6.939300394280535,2.9687682814958105,2.943049932649352,0.5156538278700697,0.6872931206822059,0.3566955549028874,0.142927802078229,-0.7749580126643804,0.3547731739140861,29.413333333333398,7.932505216077329,9.046778235744231,0.026589417416762202,50.06430483528261,1.223405128495938,10.807642328446507,850.0,0.0,7.996809757922065,0.0,1.5707963267948966,0.11127429697734437,83.10031418543518,-74.21324437895701,0.0,0.0
0.9000000000000005,1.5007401845543584,0.7284961512907989,13.801526313509221,7.353221033729408,3.123876120989485,2.3829009081912984,0.5173059373787101,0.6703105086780194,0.354793983636597,0.1383691829407422,-0.7506688687450723,0.34249799806868664,29.400000000000066,8.101173864159744,9.060710195130541,0.026630385978680605,50.218282206772564,1.2233968810492386,8.770385032284409,850.0,0.0,7.996793378093201,0.0,1.5707963267948966,0.1112405107742167,77.48392235867367,-63.411090075962406,0.0,0.0
0.9200000000000005,1.6478046052289466,0.7909736737105886,13.849184331673047,7.774067604767005,3.280589951980999,1.8296231638655098,0.5189071344600436,0.6538739800553608,0.3529167597171754,0.13358673638537777,-0.7268231107184983,0.330230354201291,29.386666666666734,8.337066530166819,9.137464913877652,0.026855994053313542,51.07241133535341,1.2233899657255984,7.1863082351091645,850.0,0.0,7.996779643860181,0.0,1.5707963267948966,0.11120501163056051,71.92393009115472,-54.72158908743169,0.0,0.0
0.9400000000000005,1.8032859573242868,0.8565854727502086,13.885776794950358,8.201378747266245,3.4387390285537247,1.283241824383409,0.5204493670178292,0.6379756409935711,0.3510598378899563,0.1286567786352479,-0.7035442352096681,0.3181437622974153,29.373333333333402,8.633997827094916,9.275019588398019,0.027260296722622146,52.62142464420975,1.2233843666134931,5.950160221235297,850.0,0.0,7.996768523655943,0.0,1.5707963267948966,0.11116778487637768,66.49740825285981,-47.91973067477329,0.0,0.0
0.9600000000000005,1.9673135322696116,0.925360253321283,13.911441631438025,8.63475356331425,3.5981729699656118,0.7437213399182224,0.5219277293192475,0.6226037330377991,0.3492216452806236,0.1236299802331501,-0.6809251837758196,0.3063636438628967,29.36000000000007,8.985223928342348,9.470210028248552,0.02783399425918315,54.85934604033218,1.2233800675536934,4.971524218704812,850.0,0.0,7.996759985414512,0.0,1.5707963267948966,0.11112881780367045,61.270609031715175,-42.623176884427785,0.0,0.0
0.9800000000000005,2.1400086035358967,0.9973237127205953,13.92631605823639,9.0738379584758,3.7587578049054313,0.21098552220544342,0.5233393164234288,0.6077436358214907,0.3474022020909442,0.11853642523389048,-0.6590316805265282,0.2949767696665618,29.34666666666674,9.383972466520191,9.719033160844157,0.02856532122609882,57.77985692039068,1.2233770523313061,4.185465429696938,850.0,0.0,7.996753996952664,0.0,1.5707963267948966,0.1110880994277137,56.294716868056526,-38.47242995009434,0.0,0.0
1.0000000000000004,2.321485362705413,1.0724988688187038,13.9305357686805,9.518314023766607,3.92037299740836,-0.31506790000202356,0.5246823869778341,0.5933787207606782,0.345602503118724,0.11339125341197982,-0.6379057162454759,0.28404157458562945,29.333333333333407,9.823813435891077,10.01696723032736,0.029440987588950338,61.376514243512105,1.2233753048182097,3.5471130037217735,850.0,0.0,7.996750526253078,0.0,1.5707963267948966,0.1110456202783845,51.60427944462276,-35.18234062617512,0.0,0.0
1.0200000000000005,2.511851643180745,1.150906328766871,13.924234410680459,9.967892717015012,4.0829094356118345,-0.8345575043708454,0.5259558132642965,0.5794910433871676,0.34382414048102294,0.1081992229248875,-0.6175689800304219,0.27359645677391625,29.320000000000075,10.29887829209824,10.359267125000665,0.030447046732302623,65.64287620501898,1.2233748090684105,3.0247980232524174,850.0,0.0,7.9967495416539744,0.0,1.5707963267948966,0.11100137222665873,47.21797789663666,-32.54048085703,0.0,0.0
1.0400000000000005,2.7112094975210455,1.2325645174791078,13.907543260593043,10.422308866957502,4.246268062767438,-1.347611674335353,0.5271587394516741,0.5660618943570643,0.3420690975101004,0.10295802596094125,-0.5980260947439455,0.26366580167450154,29.306666666666743,10.8039585756995,10.741206977377308,0.031569608506542994,70.57257619110325,1.2233755493792067,2.5952473089122856,850.0,0.0,7.996751011970841,0.0,1.5707963267948966,0.11095534833662457,43.14097126435752,-30.391745038403254,0.0,0.0
1.0600000000000005,2.9196556748601954,1.3174898787344564,13.880591027106336,10.881317636988673,4.410358902073872,-1.8543642164319332,0.5282903761004394,0.5530722346483077,0.34033965044010905,0.0976606079212565,-0.5792675661042753,0.25426419672819817,29.29333333333341,11.3345212428203,11.1582584173616,0.03279536315204679,76.15936723911935,1.2233775103293791,2.240694348421249,850.0,0.0,7.996754906572528,0.0,1.5707963267948966,0.11090754273440284,39.36796313687905,-28.622996576166578,0.0,0.0
1.0800000000000005,3.137282027599969,1.405697056775934,13.843503742777697,11.344691887403531,4.575100327133916,-2.354951352700511,0.5293498795716536,0.5405030376858861,0.3386383330421112,0.09229677434513726,-0.561272400478515,0.2453993537613277,29.28000000000008,11.88667345430698,11.606206166271242,0.034111921059670404,82.39714854057866,1.2233806768021116,1.9471977434441614,850.0,0.0,7.996761195427008,0.0,1.5707963267948966,0.11085795048854541,35.88630620100226,-27.151071681197323,0.0,0.0
1.1000000000000005,3.3641758653480394,1.4971990633186123,13.796404715723687,11.812220101907823,4.740418495490039,-2.8495096308243886,0.5303362829692975,0.5283355569415775,0.3369679355159212,0.08685430841827371,-0.544010380811376,0.23707414241529476,29.266666666666747,12.457101303956966,12.081210709669776,0.03550799698781006,89.27998027141868,1.2233850339976229,1.7036301479829448,850.0,0.0,7.996769849126685,0.0,1.5707963267948966,0.11080656749867934,32.678725183953865,-25.91412897998531,0.0,0.0
1.1200000000000006,3.6004202673861956,1.592007433228413,13.7394145231072,12.28370468302471,4.906246898943586,-3.3381744677763288,0.5312484578547951,0.5165515338126316,0.3353315202586993,0.08131975579309007,-0.5274440135755404,0.22928801790126116,29.253333333333416,13.042998749691739,12.579830864667953,0.036973476402435965,96.80209048029587,1.2233905674387378,1.50102597054565,850.0,0.0,7.996780838899665,0.0,1.5707963267948966,0.11075339039033372,29.72547921195941,-24.865584404546496,0.0,0.0
1.1400000000000006,3.84609436104669,1.6901323712072849,13.672651033751674,12.758960500861484,5.072526003351877,-3.8210791449472796,0.5320850941178188,0.5051333575799632,0.3337324443976888,0.07567898281698546,-0.5115301736897377,0.2220380348032446,29.240000000000084,13.641996486968852,13.09901873215442,0.038499400651039274,104.95787644507527,1.2233972629715442,1.3321253134914803,850.0,0.0,7.996794136611275,0.0,1.5707963267948966,0.11069841641448752,27.0059491094041,-23.969884789272026,0.0,0.0
1.1600000000000006,4.10127357106392,1.7915828912743224,13.596229450852729,13.237813625080943,5.239202960531242,-4.298354133890538,0.5328446904556081,0.49406418688360665,0.3321743834433897,0.06991757924919319,-0.49622148122868953,0.21531957542140226,29.226666666666752,14.252095949339363,13.636097466624912,0.04007790163352403,113.74190215854856,1.2234051067626388,1.191033258928198,850.0,0.0,7.9968097147587915,0.0,1.5707963267948966,0.11064164335068583,24.49972274132904,-23.199550617052164,0.0,0.0
1.1800000000000006,4.3660298435655385,1.8963669504849472,13.510262368174917,13.720100196023553,5.4062313802532245,-4.770126669524893,0.5335255510079433,0.4833280402876179,0.33066135309063904,0.06402115320053682,-0.48146744566859523,0.20912687899710544,29.21333333333342,14.871610722929507,14.188729724314273,0.04170210907385115,123.14889313875891,1.2234140852940194,1.0729542056860246,850.0,0.0,7.996827546461468,0.0,1.5707963267948966,0.11058306941275875,22.187283214217114,-22.53308795357649,0.0,0.0
1.2000000000000006,4.64043184748601,2.0044915780900117,13.41485983478442,14.205665406286787,5.573571153373761,-5.236520511740824,0.5341257855650725,0.47290986202182017,0.3291977277526379,0.05797555062174916,-0.46721541224018487,0.20345343033588495,29.200000000000088,15.499115960888638,14.75488225159651,0.043366046446081684,133.17372944836413,1.223424185356391,0.9739800343936647,850.0,0.0,7.996847605447426,0.0,1.5707963267948966,0.11052269315629548,20.050404024718876,-21.953497234238824,0.0,0.0
1.2200000000000006,4.924545155611746,2.115963001157487,13.310129424549602,14.694362573358008,5.741188318997351,-5.697655852312215,0.5346433118877991,0.46279556779860487,0.32778825529525024,0.05176702147543425,-0.45341134209106004,0.19829224793460465,29.186666666666756,16.13340547147364,15.33279013604694,0.045064525907819196,143.8114375893173,1.2234353940414757,0.8909196133685033,850.0,0.0,7.99686986603855,0.0,1.5707963267948966,0.11046051338713436,18.07233971202863,-21.447195133154587,0.0,0.0
1.2400000000000007,5.218432407078906,2.2307867675374338,13.196176307503357,15.186052289673778,5.909054969798799,-6.153649334929071,0.5350758593475415,0.4529720746468717,0.3264380679181196,0.04538234793229919,-0.4400004543363957,0.19363609944070406,29.173333333333424,16.773455725129626,15.92092281042664,0.046793048384805386,155.05718178097197,1.2234476987337655,0.821161243341114,850.0,0.0,7.996894303134272,0.0,1.5707963267948966,0.11039652907020381,16.237880907917017,-21.00322532582737,0.0,0.0
1.2600000000000007,5.522153452872381,2.3489678669334095,13.073103320804776,15.680601640164245,6.0771491904781145,-6.604614163841839,0.5354209734895337,0.4434273179349031,0.32515268937143205,0.038808945351623055,-0.426927754292787,0.18947766399281726,29.160000000000093,17.418395876718474,16.517952911661972,0.04854771204598444,166.90625501233475,1.2234610871020664,0.7625617362259222,850.0,0.0,7.9969208921949155,0.0,1.5707963267948966,0.11033073923813008,14.533324244292508,-20.612673649533775,0.0,0.0
1.2800000000000007,5.835765485675665,2.470510850742972,12.94101103752794,16.177883479747894,6.245455024951394,-7.050660282136446,0.5356760213536758,0.43415025813262265,0.323938038802817,0.032034943679007465,-0.4141384685796558,0.18580965534307808,29.14666666666676,18.06748289978631,17.12272845368293,0.05032513051784657,179.35407017044747,1.2234755470910768,0.7133570930106453,850.0,0.0,7.996949609225146,0.0,1.5707963267948966,0.1102631428991021,12.946392430993763,-20.268229621766096,0.0,0.0
1.3000000000000007,6.159323155270624,2.595419951242,12.79999783188521,16.677775764845247,6.413962468358656,-7.49189460472321,0.5358381975209054,0.425130879362031,0.32280043155794713,0.02504925473204112,-0.40157840450260224,0.18262491575935594,29.13333333333343,18.72008100321916,17.734248378366136,0.05212236102699967,192.3961514786926,1.2234910669132497,0.6720906593944397,850.0,0.0,7.99698043075791,0.0,1.5707963267948966,0.1101937389435319,11.466128283183792,-19.963854015067405,0.0,0.0
1.3200000000000007,6.492878670567529,2.723699200609173,12.650159939790747,17.18016093406705,6.582667480343012,-7.92842129416229,0.5359045309281649,0.4163601813791393,0.3217465772464658,0.01784162932954564,-0.3891942482653011,0.17991648797812493,29.120000000000097,19.37564460285783,18.351641323691975,0.05393684199818908,206.0281264255462,1.2235076350410516,0.63755537188368,850.0,0.0,7.997013333839226,0.0,1.5707963267948966,0.11012252604912343,10.082778128797006,-19.69452418345112,0.0,0.0
1.3400000000000007,6.83648188924887,2.8553525502160335,12.491591513907501,17.684925333981003,6.751572016351241,-8.360342069755113,0.5358718925360866,0.4078301663024999,0.32078357535280144,0.010402707145047617,-0.37693381409290755,0.17767767055074637,29.106666666666765,20.033704227998754,18.974147333408897,0.05576633929750357,220.24571832203915,1.2235252401997845,0.6087473233988219,850.0,0.0,7.997048296014049,0.0,1.5707963267948966,0.1100495025840118,8.787674202723686,-19.45603703244621,0.0,0.0
1.3600000000000008,7.19018039592849,2.9903839905430583,12.324384672512398,18.191958686383188,6.920684073941752,-8.78775654210364,0.5357370039547127,0.3995338211372794,0.31991890863131633,0.0027240613927001925,-0.36474625426118684,0.17590206054930144,29.093333333333433,20.693854843498286,19.601102186353486,0.057608900174865085,235.04473959203787,1.223543871361065,0.5848283979723313,850.0,0.0,7.997085295313422,0.0,1.5707963267948966,0.10997466650767773,7.5731216921107,-19.244855186267106,0.0,0.0
1.3800000000000008,7.554019569656154,3.1287976720218933,12.148629541670326,18.701153593868806,7.090017751274539,-9.210762566715331,0.535496447142469,0.39146509692746756,0.31916043448388187,-0.0052017601079344345,-0.3525822382688261,0.1745835866062797,29.0800000000001,21.355746157455354,20.231924018063296,0.059462813943686806,250.4210858713643,1.2235635177370139,0.565096159653853,850.0,0.0,7.9971243102430805,0.0,1.5707963267948966,0.10989801526940068,6.43229349988589,-19.05798585922166,0.0,0.0
1.4000000000000008,7.92804264153353,3.270598027047384,11.96441429033602,19.212405080758817,7.2595933151081535,-9.629456611308552,0.5351466752972165,0.3836188851924969,0.31851637447910486,-0.013381196355402088,-0.34039410791922625,0.1737165345424658,29.06666666666677,22.019074560827136,20.86610192424331,0.061326578485314566,266.37073096820717,1.2235841687752564,0.5489595404177576,850.0,0.0,7.99716531977361,0.0,1.5707963267948966,0.10981954570404895,5.359134129468594,-18.89288472977249,0.0,0.0
1.4200000000000008,8.312290743148706,3.415789893349547,11.771825158109849,19.75030639047933,7.413651128988778,-9.98929286474265,0.5346840250583558,0.37599099216037946,0.3179953021379851,-0.02181963625346115,-0.12674450795229825,0.20565894079288422,29.053333333333438,22.68357640930998,21.503186263600426,0.06319887174801819,282.8897227170434,1.2236058141547346,0.5359191652415223,850.0,0.0,7.997208303332255,0.0,1.5707963267948966,0.10973925392505812,4.348273061696883,-18.747379107512895,6.0,0.9624767766279881
1.4400000000000008,8.707296870958293,3.5640629159293225,11.572039300814996,20.290056612858606,7.564489182161043,-10.346713532518693,0.5351348416318982,0.3717139482233769,0.3204114858210154,-0.0305250637735031,0.07718660291328833,0.223630398739513,29.040000000000106,23.341439491123158,22.140487028977333,0.06507178716602208,299.91204487322454,1.223628443782406,0.5258518767925439,850.0,0.0,7.997253240796441,0.0,1.5707963267948966,0.10965713521446663,3.562067276851817,-18.59783267293994,6.0,0.5803884892981533
1.4600000000000009,9.113098003215466,3.715352699572543,11.365105030164623,20.831151921462602,7.708959367404138,-10.706062350814678,0.5363310653165207,0.37076102844412384,0.3253857726784055,-0.039516234810508054,0.27165900511260666,0.2113814491232888,29.026666666666774,23.99921613019984,22.77999568388232,0.06695117807221296,317.493746029204,1.2236519193787416,0.5203675023121487,850.0,0.0,7.997299857496476,0.0,1.5707963267948966,0.10957354424167143,3.0515236253228406,-18.51553475744351,6.0,-0.30602970849178385
1.4800000000000009,9.529721041644718,3.869531886920626,11.150983783148328,21.372944888119104,7.844594511800929,-11.071122254542965,0.5380326744035342,0.3732710737846534,0.3322633957565735,-0.04881187940046998,0.45689753908344816,0.15689430100363377,29.013333333333442,24.657346085150255,23.42306191598339,0.06884101077107685,335.6787605624373,1.223676235304042,0.5183077845183923,850.0,0.0,7.997348142159629,0.0,1.5707963267948966,0.10948854007129416,2.7956889693662403,-18.490678914666194,6.0,-1.594388489718015
1.5000000000000009,9.9571799394071,4.026423777156644,10.92956133805747,21.91412096759854,7.976520349601414,-11.441505080518455,0.5399456099511548,0.3795099989386781,0.3401862492509462,-0.05843393323787642,0.6330942070801101,0.07847031297913354,29.00000000000011,25.316203985198698,24.070643325497887,0.07074409910762018,354.5037675781514,1.2237013961280918,0.5182991709102553,850.0,0.0,7.997398103783932,0.0,1.5707963267948966,0.10940223886386269,2.775128133937182,-18.493478536808055,6.0,-2.4000000000000004
1.520000000000001,10.39546235875907,4.185954184148673,10.700731236447101,22.4533082490831,8.11234384526259,-11.815488586300926,0.5419100463189128,0.3895637459204204,0.34864349037657716,-0.06841421351739788,0.8004107492616062,0.004329303871848794,28.98666666666678,25.976173951867448,24.721188772602922,0.07265588360993182,373.93265737266944,1.2237274153129662,0.518259541931567,850.0,0.0,7.99744976902112,0.0,1.5707963267948966,0.10931480100590818,2.971667345782847,-18.461632632407923,6.0,-2.4000000000000004
1.540000000000001,10.844528523740733,4.348201061053925,10.464421464721083,22.989717907748595,8.252090281409581,-12.195199608344021,0.5439619268084455,0.40323372661730517,0.35764902194854686,-0.07879458113464727,0.9589804393719298,-0.06576814005149789,28.973333333333446,26.63769780827766,25.372623243246245,0.07457026517437798,393.90816086502133,1.2237543054107005,0.5168964686546546,850.0,0.0,7.997503162711496,0.0,1.5707963267948966,0.10922628824040315,3.3686129734310635,-18.34982434380612,6.0,-2.4000000000000004
1.560000000000001,11.304322881895704,4.513242866682116,10.220517472554203,23.522529936635422,8.39575891711474,-12.582637618889443,0.5461404250199529,0.42032578617627747,0.3672169117680011,-0.08961936450141002,1.1089089780348922,-0.13205241779521015,28.960000000000115,27.30104424702002,26.025272515267286,0.07648820069896577,414.4428614709102,1.2237820749278223,0.5147905202091025,850.0,0.0,7.9975583016582314,0.0,1.5707963267948966,0.1091366170789434,3.9506977291651983,-18.16550327026503,6.0,-2.4000000000000004
1.580000000000001,11.774773480628413,4.681158045024411,9.968864720176414,24.05087673085749,8.54331262777571,-12.979668908683955,0.5484879557298767,0.44064957026027285,0.3773623297780313,-0.10093538286259604,1.250276790428132,-0.19474487646656427,28.946666666666783,27.966425439489278,26.679405961858564,0.0784104812533738,435.5485522267301,1.2238107373716465,0.5126704213265184,850.0,0.0,7.9976152125897375,0.0,1.5707963267948966,0.10904570113428358,4.703346799515525,-17.91606366187467,6.0,-2.4000000000000004
1.600000000000001,12.255791015245563,4.852024297579925,9.709271342002735,24.573831065795087,8.694668498089571,-13.38802022132712,0.5510502414706875,0.464017931013216,0.3881025469113437,-0.11279200942334042,1.383141266949574,-0.25405782767353974,28.93333333333345,28.633977494540837,27.335219005684984,0.08033768051114167,457.2354282681373,1.2238403109514318,0.5113599617176039,850.0,0.0,7.997673931565292,0.0,1.5707963267948966,0.10895345150914526,5.61263620874781,-17.60873692968544,6.0,-2.4000000000000004
1.620000000000001,12.747267636561466,5.025917667541717,9.441510937576192,25.090398320409662,8.849689423398821,-13.809271744839668,0.5538764761865482,0.4902463731337279,0.3994580022928149,-0.12524128322895306,1.507538968401258,-0.31019461908352003,28.92000000000012,29.303745818385927,27.992820073903207,0.08227011641138753,479.5113478495512,1.2238708182658735,0.5117328528384858,850.0,0.0,7.9977345033535325,0.0,1.5707963267948966,0.10885977733527907,6.665259291966466,-17.25049809157445,6.0,-2.4000000000000004
1.640000000000001,13.24907560296966,5.202911456009693,9.165325502679398,25.59951280248376,9.008176792212454,-14.244849497436007,0.5570196281949604,0.5191525413526397,0.41145345425917546,-0.13833807853534869,1.6234878237491885,-0.363349758439435,28.906666666666787,29.975674752876877,28.652221462452648,0.08420782431113147,502.3811652227392,1.223902285975638,0.5146749890425494,850.0,0.0,7.997796980781232,0.0,1.5707963267948966,0.10876458645814102,7.848497131195689,-16.847989268803317,6.0,-2.4000000000000004
1.660000000000001,13.761065859019334,5.383074991853943,8.880428512730678,26.100038029327028,9.169864336640593,-14.69601725740698,0.5605369280568802,0.5505557504162941,0.42411924254579203,-0.15214034130331888,1.73098935230618,-0.4137090838661819,28.893333333333455,30.649601009619815,29.313333656755574,0.08615054029715467,525.8461402901386,1.2239347444594286,0.5210534791612398,850.0,0.0,7.997861424049375,0.0,1.5707963267948966,0.10866778626109497,9.150189959742727,-16.407461723057597,6.0,-2.4000000000000004
1.680000000000001,14.283066619605874,5.566472278586755,8.586508167582538,26.590770803317202,9.334413246431769,-15.163868282343369,0.5644905940835958,0.5842765583608038,0.4374927043824859,-0.1667094046292673,1.8300309435020152,-0.461449971638873,28.880000000000123,31.32525052277657,29.97596275974826,0.0880976936313591,549.9034314007953,1.2239682274521526,0.5316917325241118,850.0,0.0,7.997927900013696,0.0,1.5707963267948966,0.10856928462124671,10.558707472407363,-15.934736651696483,6.0,-2.4000000000000004
1.700000000000001,14.814882035672218,5.75316054351539,8.283230801935671,27.070448895668697,9.50140864505191,-15.649317140858935,0.5689488607509778,0.620136383365351,0.45161980720045714,-0.18211039865563522,1.9205882264949892,-0.5067415706547117,28.86666666666679,32.00223841942883,30.639810752819447,0.09004840752300564,574.5456788331418,1.2240027716641078,0.5473498277890546,850.0,0.0,7.997996481427564,0.0,1.5707963267948966,0.10846899098694651,12.062916726141315,-15.435184018892032,6.0,-2.4000000000000004
1.720000000000001,15.356291013585592,5.9431887164164285,7.970244459118493,27.537762114183476,9.670357521766661,-16.153092040125305,0.5739873955802164,0.6579571637039483,0.4665570871487099,-0.19841277619728875,2.0026275589740097,-0.5497450515549999,28.85333333333346,32.68007185776156,31.304478365720385,0.09200150756959015,599.7606872962328,1.2240384163806968,0.5687093709427926,850.0,0.0,7.998067246146215,0.0,1.5707963267948966,0.1083668175646677,13.652146903599276,-14.913718060921395,6.0,-2.4000000000000004
1.740000000000001,15.907046255869261,6.136595866851762,7.647182618315987,27.991366482602906,9.840688201178656,-16.675728074083732,0.5796912215092878,0.6975610591316332,0.482374018938895,-0.21569098361493075,2.0761086598466334,-0.5906138576725044,28.840000000000128,33.35815551425029,31.969470362052892,0.09395553729787041,625.5312160844009,1.2240752030429267,0.5963620604748163,850.0,0.0,7.998140276292872,0.0,1.5707963267948966,0.10826268060052247,15.316150659229542,-14.374807723803762,6.0,-2.4000000000000004
1.7600000000000011,16.46687358552132,6.333409630875335,7.313668056834312,28.429901202732317,10.011751410591518,-17.21756183905713,0.5861573096893471,0.7387701902224384,0.49915599398929267,-0.2340253183604061,2.140987404389227,-0.6294939446218613,28.826666666666796,34.03579951517206,32.63420306118702,0.09590878027840968,651.8348852653435,1.2241131748098404,0.6308012183718763,850.0,0.0,7.99821565738906,0.0,1.5707963267948966,0.10815650173915348,17.045062086243213,-13.82250012151624,6.0,-2.4000000000000004
1.7800000000000011,17.035471609575968,6.533644659087165,6.969316820053169,28.852008008961818,10.182822975701047,-17.778727864513023,0.5934980803480303,0.7814064093834894,0.5170081589507642,-0.25350303167246824,2.1972187931997724,-0.6665239953107169,28.813333333333464,34.7122296084011,33.29801391866178,0.09785928829051417,678.6442054198101,1.2241523761050568,0.6724156078553298,850.0,0.0,7.998293477453405,0.0,1.5707963267948966,0.1080482094402977,18.829351538846996,-13.260455088256178,6.0,-2.4000000000000004
1.8000000000000012,17.612511769755205,6.737301118601186,6.6137422627629086,29.17463492380128,10.374514721571806,-18.422371299779535,0.6018461604520411,0.8252910929722033,0.536060479328472,-0.2742197595755459,1.9572187931997724,-0.7018355973603663,28.800000000000132,35.38659936168032,33.96017297831254,0.09980491498852785,705.9267369660372,1.224192852150604,0.7214849339527851,850.0,0.0,7.998373826075321,0.0,1.5707963267948966,0.10793774043108995,20.65977761597831,-12.691988979437335,-4.259695408979771,-2.4000000000000004
1.8200000000000012,18.19600446823123,6.944791413032623,6.245294836767318,29.46007262933704,10.565062533551547,-19.090821701575752,0.6078342816864652,0.8655045785579816,0.5516747565854061,-0.2962215229157401,1.7172187931997724,-0.7355831063938458,28.7866666666668,36.0301768376473,34.5859615815682,0.1016436256674738,732.2078499173019,1.2242346484923239,0.7716614880727171,850.0,0.0,7.998456793472022,0.0,1.5707963267948966,0.10782504117028502,22.359006534586342,-12.116717917952585,-6.0,-2.4000000000000004
1.8400000000000012,18.785205920817972,7.156092663703654,5.863478402735803,29.725297245344827,10.75027217195138,-19.772594593754928,0.6107627720207947,0.9020991198381285,0.5633015752005162,-0.31938176383036376,1.4772187931997725,-0.767916529443321,28.77333333333347,36.66027685254196,35.19861327228541,0.1034436990605094,758.4049219687718,1.2242779591390527,0.8140862730713345,850.0,0.0,7.9985427645380875,0.0,1.5707963267948966,0.10770944491363998,23.745543046489082,-11.516414961096562,-6.0,-2.4000000000000004
1.8600000000000012,19.379711865724868,7.371098107142681,5.468026510860704,29.972486660156076,10.929077465774965,-20.465819502009122,0.6098954120936804,0.9351100793587568,0.570337089050378,-0.3435315690789973,1.2372187931997725,-0.7989785327005569,28.760000000000137,37.284274769185515,35.80670771973803,0.10523034859117233,784.8645959367034,1.2243228425368085,0.8480394126208075,850.0,0.0,7.998631855039362,0.0,1.5707963267948966,0.10759086241344296,24.853991823143627,-10.888703568263358,-6.0,-2.4000000000000004
1.8800000000000012,19.97916159892799,7.5896796564581805,5.058710120820521,30.203974009496637,11.100554548186484,-21.168848182113546,0.604481080593323,0.9645460465880431,0.572146911639928,-0.36843806162497994,0.9972187931997725,-0.8289095213608529,28.746666666666805,37.90309299694368,36.41135393213573,0.10700683249150558,811.6262839383271,1.2243693301409797,0.8722836628620452,850.0,0.0,7.998724127147466,0.0,1.5707963267948966,0.10746932950131427,25.690503336614768,-10.232591017275004,-6.0,-2.4000000000000004
1.9000000000000012,20.583241079117926,7.811690747421911,4.63533315717825,30.422214346039063,11.263898416742384,-21.880230193721083,0.5937873172856678,0.9903781907430229,0.5681008649766346,-0.3937982058240362,0.7572187931997725,-0.8578473354091759,28.733333333333473,38.51782042900382,37.01379389902784,0.10877679977822889,838.7387714928255,1.2244174490174629,0.8859916126905717,850.0,0.0,7.998819634305142,0.0,1.5707963267948966,0.10734490824349185,26.260633940862835,-9.547615611764968,-6.0,-2.4000000000000004
1.9200000000000013,21.19168536603871,8.036968715756759,4.197728553303828,30.62975774288813,11.418399648837386,-22.59868365188212,0.5771478471521632,1.0125296489419782,0.5576211284328187,-0.419234949085013,0.5172187931997725,-0.885927272779573,28.72000000000014,39.12966913467657,37.61536512398779,0.11054418012769698,866.258944495629,1.2244672223648192,0.8887112619956004,850.0,0.0,7.998918422263325,0.0,1.5707963267948966,0.1072176847695876,26.569389738469802,-8.833589021039057,-6.0,-2.4000000000000004
1.9400000000000013,21.80428052089647,8.265336708733507,3.745754880266186,30.82922800617418,11.563421795749182,-23.323061928962748,0.55402540705265,1.0308663426501745,0.5402452934259778,-0.4442971551605085,0.2772187931997725,-0.9132825069223881,28.70666666666681,39.73993473480334,38.21746610836689,0.11231308242563917,894.2505041640369,1.224518669979044,0.8803376108954469,850.0,0.0,7.999020530004229,0.0,1.5707963267948966,0.10708776743910553,26.6212736027879,-8.090320363818662,-6.0,-2.4000000000000004
1.9600000000000013,22.420865081019954,8.496605144648491,3.279293641686931,31.023305919474048,11.698379966560378,-24.052316858586224,0.524088814877687,1.0451911830731113,0.515703434248219,-0.46846510340011305,0.037218793199772504,-0.9400449398731968,28.693333333333477,40.34995961367636,38.821523949814534,0.11408769953425621,922.782651206346,1.224571808649585,0.8610906446423748,850.0,0.0,7.999125990527938,0.0,1.5707963267948966,0.1069552853622695,26.420341180148277,-7.317343750054946,-6.0,-2.4000000000000004
1.9800000000000013,23.041331199409434,8.730572743979698,2.7982473045152068,31.214715659706954,11.822721234541726,-24.785458797879414,0.4872985451490055,1.055244076133878,0.4840036440347779,-0.49116348439659513,-0.2027812068002275,-0.966346482953174,28.680000000000145,40.96109801117551,39.42896310035894,0.1158722164698882,951.9287067602888,1.2246266524770975,0.8315002119591284,850.0,0.0,7.999234831483607,0.0,1.5707963267948966,0.10682038727980991,25.970276467637657,-6.513683912811768,-6.0,-2.4000000000000004
2.0000000000000013,23.665625512603572,8.967027168670532,2.3025381285576185,31.406212718467707,11.935907789824162,-25.521513774706882,0.4439879361021153,1.0607101755163661,0.4455133601690835,-0.5117835752235547,-0.4427812068002275,-0.9923206818181282,28.666666666666814,41.574681946196726,40.04117420227302,0.11767071881260817,981.7646227690848,1.2246832131046819,0.7923979230748802,850.0,0.0,7.999347075628947,0.0,1.5707963267948966,0.10668324079388025,25.27449916530896,-5.677706670981525,-6.0,-2.4000000000000004
2.0200000000000014,24.293749766972926,9.205745324467015,1.7921078530634809,31.687869481072095,12.033255108085148,-26.218987019616797,0.3949190256159807,1.0612380519373774,0.4010156747309068,-0.5297153142164688,-0.3918042383673791,-1.0181045054669124,28.65333333333348,42.1919868865805,40.65948182517572,0.11948709789071103,1012.3673202790507,1.2247414998552228,0.7449150013729245,850.0,0.0,7.999462741103336,0.0,1.5707963267948966,0.10654403192663908,24.33630864570784,-4.807106440029715,3.3164281926459505,-2.4000000000000004
2.0400000000000014,24.927507156594366,9.446410426628718,1.2677281126711448,31.998424310793244,12.117587656072743,-26.901886593569728,0.34529393893647375,1.0618391056192475,0.3563048316295969,-0.5444526933419647,-0.2523821402446823,-1.0438263254061921,28.64000000000015,42.85271964625527,41.3258620310073,0.12144470788048824,1045.8744745340719,1.2248015197679223,0.6952940404456099,850.0,0.0,7.999581841500952,0.0,1.5707963267948966,0.10640296496097701,23.280325534089563,-3.9001578438136666,6.0,-2.4000000000000004
2.0600000000000014,25.56747564281023,9.688762179750173,0.7296903807997502,32.31348492236263,12.190450559524514,-27.58438618933266,0.29613755985093526,1.0641555412996517,0.31248325746729133,-0.5558629250439021,-0.11902623596403536,-1.0695963168127616,28.626666666666818,43.52524085251519,42.00675689518555,0.12344493003109407,1080.676958177826,1.2248631822982066,0.6539133245340151,850.0,0.0,7.99970419677371,0.0,1.5707963267948966,0.10626057735902616,22.355971255849433,-2.9794167180214197,6.0,-2.4000000000000004
2.0800000000000014,26.213745341257482,9.932571190940664,0.17800265701309703,32.63157901154776,12.251661706400897,-28.26702467566722,0.24689938856887483,1.0681214037641515,0.2688855816519675,-0.5638864050761545,0.00798797104194815,-1.0955223846833662,28.613333333333486,44.2003026473147,42.69216523124778,0.12545837282482283,1116.2883216056953,1.224926453358895,0.622566799298356,850.0,0.0,7.999829738911147,0.0,1.5707963267948966,0.1061171877987972,21.62674444954024,-2.04845832375237,6.0,-2.4000000000000004
2.1000000000000014,26.86637692148844,10.177604425068681,0.0,32.94875595774522,12.350350297443883,-28.94445872724343,0.19704816991158314,1.0736312001907304,0.2248668406635761,-0.5684077675397378,0.12837286998774194,-0.9603563084335551,28.600000000000154,44.877030286882324,43.3811204701504,0.12748219468853111,1152.668832052622,1.2249913321996908,0.6002387446090467,850.0,0.0,7.999958466046697,0.0,1.5707963267948966,0.10597302031714895,21.083446504636512,-1.1044709429013408,6.0,2.4000000000000004
2.1200000000000014,27.52535204064334,10.424611431017558,0.0,33.26622503922534,12.437058913560008,-29.62423245415889,0.15189476088998166,1.0799092584029415,0.1864281247141113,-0.5693227401742488,0.24183267081604,-0.8334438360731615,28.586666666666822,45.562411729908696,44.07184767951781,0.12951174440508553,1189.6876639926563,1.2250122659906946,0.5861732977177176,850.0,0.0,8.0,0.0,1.5707963267948966,0.1058282991268995,20.717923497877123,-0.0759787756463543,6.0,2.4000000000000004
2.1400000000000015,28.190676541427848,10.673352609288758,0.0,33.58265585363954,12.513329227508287,-30.306536840096037,0.11105220741448774,1.0872124135392989,0.15302796990227874,-0.566839852799419,0.34809765709531626,-0.7141954179025826,28.57333333333349,46.24843036555713,44.76521382346817,0.13154930496908643,1227.4159658635851,1.2250122659906946,0.5794033984250857,850.0,0.0,8.0,0.0,1.5707963267948966,0.10568230332565243,20.510554143842796,0.7843917599133993,6.0,2.4000000000000004
2.1600000000000015,28.862329658500638,10.923619193838924,0.0,33.89679428818266,12.580585600887831,-30.991630365169875,0.07415368979057968,1.0957144824305942,0.12415557456535842,-0.561155519770005,0.4469095135049622,-0.6020501208567534,28.56000000000016,46.93468182250841,45.46043433734404,0.1335923148776569,1265.8364674722513,1.2250122659906946,0.5785971426286167,850.0,0.0,8.0,0.0,1.5707963267948966,0.10553525490671056,20.44819292520148,1.4904151831769556,6.0,2.4000000000000004
2.1800000000000015,29.54026554426429,11.175230905856681,0.0,34.20745620390469,12.640137523045869,-31.679807183386156,0.04087331318997833,1.105520176122825,0.0993513743529908,-0.5524528569322577,0.5380246625694197,-0.49647345898173706,28.546666666666827,47.62084574813805,46.156858430289134,0.135638861684111,1304.9171089183344,1.2250122659906946,0.5827473821398225,850.0,0.0,8.0,0.0,1.5707963267948966,0.1053873436302295,20.51809489695151,2.0544061871364616,6.0,2.4000000000000004
2.2000000000000015,30.224414668342384,11.428033656317599,0.0,34.5135229600477,12.69318501718156,-32.371369985282136,0.010938247308105886,1.1166774195451845,0.07821893912498279,-0.5409034532169945,0.6212167176119886,-0.39695546467391446,28.533333333333495,48.306659165378996,46.853933872742864,0.13768732257893493,1344.6292743129295,1.2250122659906946,0.5910991136314914,850.0,0.0,8.0,0.0,1.5707963267948966,0.10523872936159995,20.7078329280366,2.487404604697691,6.0,2.4000000000000004
2.2200000000000015,30.914685127543336,11.68189735666123,0.0,34.81393892517231,12.74082603115354,-33.06660737015894,-0.015864278677907073,1.1291878488577183,0.06043170881875026,-0.5266710677817013,0.6962792859501492,-0.3030090592395958,28.520000000000163,48.99189532686164,47.55118134645303,0.1397362890134466,1384.9467114658373,1.2250122659906946,0.6030901994859212,850.0,0.0,8.0,0.0,1.5707963267948966,0.10508954435382512,21.005250703620874,2.799370486025227,6.0,2.4000000000000004
2.2400000000000015,31.610963906046784,11.936713877284301,0.0,35.10771085638705,12.784065048219336,-33.76577544844362,-0.039682456662668564,1.1430155458797167,0.04573724430408488,-0.5099168513586696,0.76302895697459,-0.21416866166895518,28.50666666666683,49.67634763561022,48.24817403711295,0.14178450672969434,1425.8446343891026,1.2250122659906946,0.6183027891810475,850.0,0.0,8.0,0.0,1.5707963267948966,0.10493989542222604,21.39844317093981,2.9993413523664367,6.0,2.4000000000000004
2.2600000000000016,32.313118123174526,12.192395178248688,0.0,35.39390895076452,12.823822338924428,-34.46908339057269,-0.06059589560642564,1.1580941810325385,0.03396096590469355,-0.4908059253798047,0.8213083409983533,-0.12998898976317608,28.4933333333335,50.35981803350265,48.944521977397926,0.14383082975011785,1467.2990088490953,1.2250122659906946,0.636423462361056,850.0,0.0,8.0,0.0,1.5707963267948966,0.10478986597858686,21.87575665890868,3.0955598922642715,6.0,2.4000000000000004
2.2800000000000016,33.020996302189815,12.448871625027177,0.0,35.67166931339514,12.860943419863249,-35.176682641046824,-0.07861066050812227,1.1743327601712998,0.0250108730766323,-0.46951535682920625,0.8709890504382534,-0.050044019551473876,28.480000000000167,51.042109282254,49.6398606218709,0.14587418680319222,1509.2860169777532,1.2250122659906946,0.6572106580492965,850.0,0.0,8.0,0.0,1.5707963267948966,0.10463951790588233,22.425802446256313,3.095578655574081,6.0,2.4000000000000004
2.3000000000000016,33.734429688457716,12.706090493424442,0.0,35.85442139122467,12.886637872690208,-35.927261913456924,-0.09365215186134312,1.1916201460814442,0.018884479080601313,-0.4462437530063899,0.6309890504382534,0.026073922205724923,28.466666666666836,51.72302058930883,50.333843129292774,0.14791355864383762,1551.7816934683392,1.2250122659906946,0.6804683138488052,850.0,0.0,8.0,0.0,1.5707963267948966,0.10448889326510491,23.037478870942973,3.0063468544436804,-3.0849063756812374,2.4000000000000004
2.3200000000000016,34.45151811628221,12.963823250878246,0.0,35.997863670614,12.906925195309572,-36.689712150123064,-0.10423579613913825,1.2042333914294634,0.017098878457559863,-0.4212366099831973,0.3909890504382534,0.09876196817691964,28.453333333333504,52.36767244741259,50.99202792198455,0.14984773352260106,1592.6304302870578,1.2250122659906946,0.7020301256935483,850.0,0.0,8.0,0.0,1.5707963267948966,0.10433801583320834,23.60088487285276,2.8351248324814877,-6.0,2.4000000000000004
2.3400000000000016,35.171475389694486,13.221961754784438,0.0,36.13350609712396,12.92600637760717,-37.45390271853422,-0.10966274297485734,1.2122162475449851,0.0203099952252086,-0.39497613691211814,0.1509890504382534,0.16839645282032198,28.440000000000172,52.99594215130359,51.633894695048554,0.1517339554495709,1632.9775382728017,1.2250122659906946,0.7112026519509345,850.0,0.0,8.0,0.0,1.5707963267948966,0.1041868459228068,23.855827918761577,2.586448637939007,-6.0,2.4000000000000004
2.3600000000000017,35.894145511636964,13.480481882336582,0.0,36.264146948587516,12.945020051537064,-38.219259788752815,-0.10951172168921941,1.2155864854407357,0.028907365699741394,-0.36807623451901456,-0.0890109495617466,0.23532811876442913,28.42666666666684,53.623751571428315,52.27514352493493,0.15361836145769256,1673.7897707923573,1.2250122659906946,0.709078549324101,850.0,0.0,8.0,0.0,1.5707963267948966,0.10403537897431381,23.836003093262487,2.267402906970057,-6.0,2.4000000000000004
