t,x,y,z,vx,vy,vz,roll,pitch,yaw,p,q,r,mass,phase,speed,airspeed,mach,q_dyn,rho,cd_eff,alpha_deg,beta_deg,roll_ref_deg,pitch_ref_deg,yaw_ref_deg,roll_error_deg,pitch_error_deg,yaw_error_deg,gimbal_pitch_deg,gimbal_yaw_deg
0.0,0.0,0.0,0.0,15.391536883141457,0.0,19.70026884016805,0.0,0.9075712110370514,0.0,0.0,0.0,0.0,21.2,rail,25.0,25.0,0.07346625523104375,382.81633312209203,1.2250122659906946,0.22,0.0,0.0,0.0,52.0,0.0,0.0,0.0,0.0,0.0,0.0
0.02,0.30783073766282915,0.0,0.394005376803361,15.461805865706246,0.0,19.594009036404575,0.0,0.9075712110370517,0.0,0.0,0.0,0.0,21.190153846153844,longitudinal,25.0,25.0,0.07346625523104375,382.81633312209203,1.2250122659906946,0.2200225219701134,0.0,0.0,-0.0,40.0,0.0,0.0,-12.000000000000018,0.0,0.0,0.0
0.04,0.617066854976954,0.0,0.7858855575314525,15.53210466982782,0.0,19.487774460813498,0.0,0.9075712110370517,0.0,0.0,-6.82511712124752e-05,0.0,21.18030769230769,longitudinal,24.95982032682712,24.95982032682712,0.07334850718217972,381.57237359855066,1.2249659298239992,0.22008804960628645,0.27728338979621475,0.0,-0.0,40.0,0.0,0.0,-12.000000000000018,0.0,0.0,0.0
0.06,0.9277089483735104,0.0,1.1756410467477225,15.602432778789113,0.0,19.38156450069422,0.0,0.9075698460136277,0.0,0.0,-0.00020126210660284841,0.0,21.170461538461534,longitudinal,24.920265426155115,24.920265426155115,0.07323259233698247,380.3496337672861,1.224919844916509,0.2202855917619065,0.5554718726081999,0.0,-0.0,40.0,0.0,0.0,-12.000000000000018,0.0,0.0,0.0
0.08,1.2397576039492926,0.0,1.563272336761607,15.672789789919618,0.0,19.27537845824378,0.0,0.9075658207714952,0.0,0.0,-0.0003956966400360757,0.0,21.16061538461538,longitudinal,24.88133740599977,24.88133740599977,0.07311851692328523,379.1480839186093,1.2248740111872842,0.22061631117274141,0.8344770812866239,0.0,-0.0,40.0,0.0,0.0,-11.999921789918881,0.0,0.0,0.0
0.1,1.553213399747685,0.0,1.9487799059264828,15.74317540896686,0.0,19.16921555568297,0.0,0.9075579068386945,0.0,0.0,-0.0006483677217358223,0.0,21.150769230769225,longitudinal,24.843038350965386,24.843038350965386,0.07300628709995505,377.9676946998298,1.2248284285569504,0.2210812138494203,1.1142147696043665,0.0,-0.0,40.0,0.0,0.0,-11.999691160533171,0.0,0.0,0.0
0.12000000000000001,1.868076907927022,0.0,2.332164217040142,15.813589444709695,0.0,19.063074940128093,0.0,0.9075449394842598,0.0,0.0,-0.000956231513772082,0.0,21.14092307692307,longitudinal,24.805370325349646,24.805370325349646,0.07289590896601272,376.8084372311228,1.2247830969478986,0.22168115731034774,1.3946046199255273,0.0,-0.0,40.0,0.0,0.0,-11.999237725584344,0.0,0.0,0.0
0.14,2.184348696821216,0.0,2.7134257158427038,15.884031803802781,0.0,18.956955688217782,0.0,0.9075258148539849,0.0,0.0,-0.0013163816986833932,0.0,21.131076923076915,longitudinal,24.76833537601535,24.76833537601535,0.07278738856906829,375.6702832132338,1.2247380162844723,0.22241685847573756,1.6755700584088125,0.0,-0.0,40.0,0.0,0.0,-11.998494750903786,0.0,0.0,0.0
0.16,2.5020293328972714,0.0,3.0925648296070594,15.954502485842147,0.0,18.85085681050445,0.0,0.9074994872200115,0.0,0.0,-0.0017260439945019782,0.0,21.12123076923076,longitudinal,24.731935535037906,24.731935535037906,0.0726807319130976,374.55320502741233,1.2246931864931458,0.22328890122403092,1.9570380774829663,0.0,-0.0,40.0,0.0,0.0,-11.997398990304282,0.0,0.0,0.0
0.18,2.821119382614114,0.0,3.4695819658171483,16.02500157864233,0.0,18.74477725561955,0.0,0.9074649663401217,0.0,0.0,-0.002182570869611056,0.0,21.111384615384605,longitudinal,24.696172822137545,24.696172822137545,0.07257594496558673,373.4571758279626,1.2246486075026857,0.22429774361341298,2.238939065339042,0.0,-0.0,40.0,0.0,0.0,-11.995890527993042,0.0,0.0,0.0
0.19999999999999998,3.1416194141869607,0.0,3.844477510929539,16.095529253716037,0.0,18.638715914221763,0.0,0.907421314922729,0.0,0.0,-0.0026834364510237084,0.0,21.10153846153845,longitudinal,24.66104924690515,24.66104924690515,0.07247303366406996,372.3821696277923,1.2246042792443128,0.22544372477240576,2.5212066421936643,0.0,-0.0,40.0,0.0,0.0,-11.993912627270282,0.0,0.0,0.0
0.21999999999999997,3.4635299992612816,0.0,4.217251829213974,16.166085761947812,0.0,18.532671622737055,0.0,0.907367646193709,0.0,0.0,-0.0032262316198311686,0.0,21.091692307692295,longitudinal,24.626566810830376,24.626566810830376,0.0723720039220873,371.3281613773163,1.2245602016518387,0.22672707146459506,2.803777503083832,0.0,-0.0,40.0,0.0,0.0,-11.991411585283915,0.0,0.0,0.0
0.23999999999999996,3.786851714500238,0.0,4.587905261668715,16.240077788897512,0.0,18.431001279239783,0.0,0.9073031215613128,0.0,0.0,-0.0038086592877260165,0.0,21.08184615384614,longitudinal,24.59272750914089,24.59272750914089,0.07227286163458671,370.2951270370863,1.2245163746618082,0.22814790433348534,3.0865912669635387,0.0,-0.0,40.0,0.0,0.0,-11.988336593619238,0.0,0.0,0.0
0.25999999999999995,4.111653270278188,0.0,4.956525287253511,16.320917310050245,0.0,18.33806663614741,0.0,0.9072269483755582,0.0,0.0,-0.004428709912874692,0.0,21.071999999999985,longitudinal,24.565055154523485,24.565055154523485,0.0721918402260923,369.44911719819186,1.224472798213622,0.22970188761248414,3.3688311951080254,0.0,-0.0,40.0,0.0,0.0,-11.984639604508299,0.0,0.0,0.0
0.27999999999999997,4.438071616479193,0.0,5.323286619976459,16.40861174244347,0.0,18.253872353042954,0.0,0.9071383741773005,0.0,0.0,-0.005084707518089177,0.0,21.06215384615383,longitudinal,24.549073909076093,24.549073909076093,0.07214517448855878,368.95551138096937,1.2244294620027119,0.23138151713279656,3.649424079392766,0.0,-0.0,40.0,0.0,0.0,-11.980275202452495,0.0,0.0,0.0
0.3,4.7662438513280625,0.0,5.688364067037318,16.503168900580352,0.0,18.17842277550426,0.0,0.9070366800269385,0.0,0.0,-0.0057751430888890575,0.0,21.052307692307675,longitudinal,24.544783461979037,24.544783461979037,0.07213286408245033,368.81357007761113,1.2243863454705022,0.23318148331398045,3.9279305043444928,0.0,-0.0,40.0,0.0,0.0,-11.975200274718574,0.0,0.0,0.0
0.32,5.096307229339669,0.0,6.051932522547403,16.604597018571365,0.0,18.111721915976812,0.0,0.9069211771651604,0.0,0.0,-0.006498666261661158,0.0,21.04246153846152,longitudinal,24.552181947151958,24.552181947151958,0.0721549040930927,369.02300954926847,1.2243434280497694,0.23509570558382867,4.203917267459012,0.0,-0.0,40.0,0.0,0.0,-11.969373629101662,0.0,0.0,0.0
0.34,5.4283991697110965,0.0,6.41416696086694,16.71290477133102,0.0,18.053773435346585,0.0,0.9067912038399273,0.0,0.0,-0.007254077265271704,0.0,21.032615384615365,longitudinal,24.571266001385112,24.571266001385112,0.07221128520209083,369.58400320915933,1.224300689165361,0.2371173776729397,4.476959152087573,0.0,-0.0,40.0,0.0,0.0,-11.962755802600096,0.0,0.0,0.0
0.36000000000000004,5.762657265137717,0.0,6.775242429573871,16.828101294973077,0.0,18.004580625096395,0.0,0.9066461222946218,0.0,0.0,-0.00804031911219059,0.0,21.02276923076921,longitudinal,24.602030833864205,24.602030833864205,0.07230199389223581,370.4971830290149,1.2242581082349497,0.23923902022273416,4.746640658877709,0.0,-0.0,40.0,0.0,0.0,-11.955308879614957,0.0,0.0,0.0
0.38000000000000006,6.099219291037179,0.0,7.135334042075799,16.950196206538173,0.0,17.964146389936555,0.0,0.906485315912378,0.0,0.0,-0.008856470034523762,0.0,21.012923076923055,longitudinal,24.64447030632777,24.64447030632777,0.07242701268366568,371.7636409674659,1.2242156646698419,0.2414525400103119,5.012557676240099,0.0,-0.0,40.0,0.0,0.0,-11.946996319383718,0.0,0.0,0.0
0.4000000000000001,6.438223215167943,0.0,7.494616969874531,17.079199623178617,0.0,17.932473230807513,0.0,0.9063081865116871,0.0,0.0,-0.009701736159759321,0.0,21.0030769230769,longitudinal,24.69857702296251,24.69857702296251,0.072586320398651,373.38493041914643,1.2241733378758284,0.2437492949766122,5.2743190714195665,0.0,-0.0,40.0,0.0,0.0,-11.93778279236238,0.0,0.0,0.0
0.4200000000000001,6.7798072076315155,0.0,7.853266434490681,17.215122180916456,0.0,17.909563228158852,0.0,0.9061141517884916,0.0,0.0,-0.010575444420502579,0.0,20.993230769230745,longitudinal,24.7643424290251,24.7643424290251,0.07277989245203305,375.36306768347254,1.2241311072540777,0.24612016414648638,5.531548185170877,0.0,-0.0,40.0,0.0,0.0,-11.92763402527511,0.0,0.0,0.0
0.4400000000000001,7.124109651249845,0.0,8.211457699053858,17.357975053082463,0.0,17.895418025415456,0.0,0.9059026429000818,0.0,0.0,-0.011477035691994422,0.0,20.98338461538459,longitudinal,24.84175691708019,24.84175691708019,0.0730077011640524,377.70053345220964,1.2240889522020735,0.24855562145300683,5.783884214745949,0.0,-0.0,40.0,0.0,0.0,-11.91651665455702,0.0,0.0,0.0
0.46000000000000013,7.4712691523114945,0.0,8.569366059562167,17.507769968535573,0.0,17.890038812547697,0.0,0.9056731021862419,0.0,0.0,-0.01240605815076583,0.0,20.973538461538435,longitudinal,24.930809939666972,24.930809939666972,0.07326971609207714,380.400274315093,1.2240468521145924,0.2510458124252552,6.030983471836102,0.0,-0.0,40.0,0.0,0.0,-11.904398087921635,0.0,0.0,0.0
0.48000000000000015,7.821424551682206,0.0,8.927166835813122,17.66451922975463,0.0,17.89342630966838,0.0,0.9054249810232262,0.0,0.0,-0.013362160847372719,0.0,20.96369230769228,longitudinal,25.031490127150224,25.031490127150224,0.0735659043775753,383.46570428289454,1.2240047863847228,0.25358063266992825,6.272520504240413,0.0,-0.0,40.0,0.0,0.0,-11.891246373792184,0.0,0.0,0.0
0.5000000000000001,8.174714936277299,0.0,9.28503536200649,17.828235730886774,0.0,17.905580750584694,0.0,0.9051577378062792,0.0,0.0,-0.014345087485772455,0.0,20.953846153846126,longitudinal,25.143785409478497,25.143785409478497,0.07389623110457717,386.9007063274554,1.2239627344049233,0.25614980707236523,6.508189072285602,0.0,-0.0,40.0,0.0,0.0,-11.87703007834351,0.0,0.0,0.0
0.5200000000000001,8.531279650895035,0.0,9.643146977018183,17.998932975829625,0.0,17.926501866238738,0.0,0.9048708360565634,0.0,0.0,-0.015354670401542274,0.0,20.94399999999997,longitudinal,25.26768314056073,25.26768314056073,0.07426065966584022,390.7096339383163,1.2239206755681338,0.258742968661396,6.737702973356126,0.0,-0.0,40.0,0.0,0.0,-11.861718169908945,0.0,0.0,0.0
0.5400000000000001,8.891258310411628,0.0,10.001677014342958,18.176625096417602,0.0,17.956188867975253,0.0,0.9045637426485325,0.0,0.0,-0.01639082473079721,0.0,20.934153846153816,longitudinal,25.403170223983228,25.403170223983228,0.07465915213296045,394.8973126956585,1.2238785892689061,0.2613497361232802,6.960796710248004,0.0,-0.0,40.0,0.0,0.0,-11.845279910515313,0.0,0.0,0.0
0.5600000000000002,9.25479081233998,0.0,10.360800791702463,18.36132687077598,0.0,17.994640430579892,0.0,0.9042359261539161,0.0,0.0,-0.017453542761338887,0.0,20.92430769230766,longitudinal,25.55023323882028,25.55023323882028,0.07509166962676603,399.46904185938513,1.2238364549045955,0.2639597890108945,7.177226001383347,0.0,-0.0,40.0,0.0,0.0,-11.82768475431885,0.0,0.0,0.0
0.5800000000000002,9.622017349755499,0.0,10.72069360031406,18.553053741899927,0.0,18.041854675036024,0.0,0.9038868552986896,0.0,0.0,-0.018542888457255446,0.0,20.914461538461506,longitudinal,25.70885856434199,25.70885856434199,0.07555817268447661,404.4305959742225,1.2237942518765852,0.2665629397726496,7.386768133166483,0.0,-0.0,40.0,0.0,0.0,-11.808902252722563,0.0,0.0,0.0
0.6000000000000002,9.993078424593497,0.0,11.08153069381478,18.751821836509567,0.0,18.097829150952364,0.0,0.9035159975295448,0.0,0.0,-0.01965899214789705,0.0,20.90461538461535,longitudinal,25.87903250249024,25.87903250249024,0.07605862162030985,409.7882264908029,1.2237519595915547,0.26914920181841634,7.58922215688413,0.0,-0.0,40.0,0.0,0.0,-11.788901965967062,0.0,0.0,0.0
0.6200000000000002,10.368114861323688,0.0,11.443487276833828,18.957647984226124,0.0,18.162560818617806,0.0,0.9031228176865866,0.0,0.0,-0.02080204537187119,0.0,20.894769230769196,longitudinal,26.06074139707576,26.06074139707576,0.07659297687645776,415.54866340274197,1.2237095574627894,0.27170885294377195,7.784408934511873,0.0,-0.0,40.0,0.0,0.0,-11.767653380995426,0.0,0.0,0.0
0.6400000000000002,10.747267821008212,0.0,11.806738493206185,19.163635526138112,0.0,18.2272769303165,0.0,0.9027067767791497,0.0,0.0,-0.021972295866438677,0.0,20.88492307692304,longitudinal,26.25397174874353,26.25397174874353,0.07716119936163197,421.7191168997764,1.2236670249115407,0.2742324935458016,7.972171039558591,0.0,-0.0,40.0,0.0,0.0,-11.745125835404307,0.0,0.0,0.0
0.6600000000000003,11.130540531530974,0.0,12.171284031812515,19.369789834726664,0.0,18.2919720576541,0.0,0.9022673308618208,0.0,0.0,-0.02316911092262331,0.0,20.875076923076886,longitudinal,26.447656812525203,26.447656812525203,0.07773076404192499,427.9494905567228,1.223624341368418,0.2767589412707318,8.15581307999839,0.0,-0.0,40.0,0.0,0.0,-11.721288447303376,0.0,0.0,0.0
0.6800000000000003,11.517936328225508,0.0,12.537123472965597,19.576116436060623,0.0,18.35664066463838,0.0,0.9018039486433684,0.0,0.0,-0.0243918712782009,0.0,20.86523076923073,longitudinal,26.641790480361465,26.641790480361465,0.07830165300664875,434.23989993085,1.2235815068821374,0.27928487419173864,8.33537374226204,0.0,-0.0,40.0,0.0,0.0,-11.696110050916174,0.0,0.0,0.0
0.7000000000000003,11.90945865694672,0.0,12.904256286258365,19.782621006738648,0.0,18.42127710969623,0.0,0.9013161112178043,0.0,0.0,-0.025639970066696733,0.0,20.855384615384576,longitudinal,26.836366952492995,26.836366952492995,0.07887384925094716,440.59046558806483,1.2235385215142078,0.2818070952042786,8.510891136559753,0.0,-0.0,40.0,0.0,0.0,-11.669560205497447,0.0,0.0,0.0
0.7200000000000003,12.305111077081493,0.0,13.272681828452288,19.98930937086147,0.0,18.48587564760814,0.0,0.9008033118164702,0.0,0.0,-0.026912811821380386,0.0,20.84553846153842,longitudinal,27.03138073144758,27.03138073144758,0.0794473366581342,447.00131323795654,1.2234953853391837,0.284322528552202,8.68240280023845,0.0,-0.0,40.0,0.0,0.0,-11.641609179924094,0.0,0.0,0.0
0.7400000000000003,12.704897264498722,0.0,13.64239934140445,20.196187497028767,0.0,18.550430431364475,0.0,0.9002650555800429,0.0,0.0,-0.0282098115317345,0.0,20.835692307692266,longitudinal,27.22682661609395,27.22682661609395,0.08002209998222816,453.47257386531334,1.2234520984449144,0.28682821646616663,8.849945702630782,0.0,-0.0,40.0,0.0,0.0,-11.612227938490816,0.0,0.0,0.0
0.7600000000000003,13.108821014439298,0.0,14.01340795003174,20.403261495355423,0.0,18.61493551394766,0.0,0.8997008593494087,0.0,0.0,-0.02953039374999625,0.0,20.82584615384611,longitudinal,27.422699695763622,27.422699695763622,0.08059812483068529,460.0043838581224,1.223408660932784,0.28932131591349053,9.013556251265182,0.0,-0.0,40.0,0.0,0.0,-11.581388127846934,0.0,0.0,0.0
0.7800000000000004,13.516886244346408,0.0,14.385706660310692,20.610537614502242,0.0,18.679384850044237,0.0,0.8991102514744087,0.0,0.0,-0.03087399174548622,0.0,20.815999999999956,longitudinal,27.618995344441533,27.618995344441533,0.08117539764733532,466.59688513206675,1.2233650729179468,0.291799095458186,9.173270299314616,0.0,-0.0,40.0,0.0,0.0,-11.549062065014406,0.0,0.0,0.0
0.8000000000000004,13.929096996636453,0.0,14.759294357311576,20.818022238716406,0.0,18.74377229769059,0.0,0.898492771639499,0.0,0.0,-0.032240046704550704,0.0,20.8061538461538,longitudinal,27.815709215025848,27.815709215025848,0.08175390569551998,473.2502252515252,1.223321334529561,0.2942589322295952,9.32912315417161,0.0,-0.0,40.0,0.0,0.0,-11.515222726429716,0.0,0.0,0.0
0.8200000000000004,14.345457441410781,0.0,15.134169803265388,21.025721884877264,0.0,18.808091619856018,0.0,0.8978479707054081,0.0,0.0,-0.033628006974048615,0.0,20.796307692307646,longitudinal,28.012837233657073,28.012837233657073,0.08233363704143502,479.96455754707546,1.2232774459110203,0.29669830899772137,9.481149587042594,0.0,-0.0,40.0,0.0,0.0,-11.479843737954956,0.0,0.0,0.0
0.8400000000000004,14.765971879108326,0.0,15.510331635662508,21.233643199543273,0.0,18.872336485966635,0.0,0.8971754105659269,0.0,0.0,-0.03503732734641502,0.0,20.78646153846149,longitudinal,28.210375594116165,28.210375594116165,0.0829145805376745,486.740041229494,1.2232334072201771,0.29911481135311235,9.629383843463474,0.0,-0.0,40.0,0.0,0.0,-11.442899365805454,0.0,0.0,0.0
0.8600000000000004,15.190644743099192,0.0,15.887778365381841,21.44179295599612,0.0,18.936500473373528,0.0,0.8964746640189984,0.0,0.0,-0.036467468384428894,0.0,20.776615384615337,longitudinal,28.40832075229118,28.40832075229118,0.0834967258069765,493.5768415002465,1.2231892186295608,0.30150612498892254,9.773859654643946,0.0,-0.0,40.0,0.0,0.0,-11.404364508344448,0.0,0.0,0.0
0.8800000000000004,15.619480602219115,0.0,16.266508374849312,21.650178051278356,0.0,19.000577068768408,0.0,0.8957453146513101,0.0,0.0,-0.037917895783904206,0.0,20.76676923076918,longitudinal,28.60666942071168,28.60666942071168,0.08408006322616726,500.4751296584624,1.2231448803266018,0.3038700330826024,9.91461024955533,0.0,-0.0,40.0,0.0,0.0,-11.364214688697084,0.0,0.0,0.0
0.9000000000000005,16.05248416324468,0.0,16.64651991622468,21.85880550322098,0.0,19.064559669549936,0.0,0.8949869567356323,0.0,0.0,-0.03938807977261012,0.0,20.756923076923027,longitudinal,28.805418563149935,28.805418563149935,0.08466458391030185,507.4350832043666,1.2231003925138397,0.3062044137745004,10.05166836768173,0.0,-0.0,40.0,0.0,0.0,-11.32242604813801,0.0,0.0,0.0
0.9200000000000005,16.489660273309102,0.0,17.02781110961568,22.067682447457763,0.0,19.12844158514377,0.0,0.89419919514018,0.0,0.0,-0.04087749454380906,0.0,20.74707692307687,longitudinal,29.004565389287837,29.004565389287837,0.08525027969699718,514.4568859391636,1.2230557554091368,0.30850723774053995,10.185066272360347,0.0,-0.0,40.0,0.0,0.0,-11.278975340209334,0.0,0.0,0.0
0.9400000000000005,16.93101392225826,0.0,17.410379941318556,22.27681613442314,0.0,19.192216038279255,0.0,0.8933816452493035,0.0,0.0,-0.04238561772288,0.0,20.737230769230717,longitudinal,29.204107349448176,29.204107349448176,0.0858371431309542,521.5407280613449,1.2230109692458866,0.31077656585602753,10.31483576464176,0.0,-0.0,40.0,0.0,0.0,-11.233839925527421,0.0,0.0,0.0
0.9600000000000005,17.37655024494672,0.0,17.794224262084143,22.486213926330876,0.0,19.255876166225693,0.0,0.8925339328948461,0.0,0.0,-0.04391192986556969,0.0,20.727384615384562,longitudinal,29.404042129388923,29.404042129388923,0.08642516744866484,528.6868062593966,1.2229660342732134,0.3130105469475705,10.441008197605983,0.0,-0.0,40.0,0.0,0.0,-11.186997767238818,0.0,0.0,0.0
0.9800000000000005,17.826274523473337,0.0,18.179341785408656,22.695883294130752,0.0,19.31941502199089,0.0,0.8916556942975351,0.0,0.0,-0.045455913986485776,0.0,20.717538461538407,longitudinal,29.604367645158973,29.604367645158973,0.0870143465632993,535.8953238008886,1.2229209507561796,0.3152074156300175,10.563614491074253,0.0,-0.0,40.0,0.0,0.0,-11.138427427087308,0.0,0.0,0.0
1.0000000000000004,18.28019218935595,0.0,18.565730085848475,22.905831814440756,0.0,19.38282557548474,0.0,0.890746576017805,0.0,0.0,-0.047017055116513926,0.0,20.707692307692252,longitudinal,29.80508203801376,29.80508203801376,0.08760467504976903,543.1664906179077,1.2228757189759791,0.31736549022528937,10.682685146660978,0.0,-0.0,40.0,0.0,0.0,-11.088108062055902,0.0,0.0,0.0
1.0200000000000005,18.738308825644765,0.0,18.95338659735817,23.11606716645251,0.0,19.446100714650466,0.0,0.8898062349154747,0.0,0.0,-0.04859483988790594,0.0,20.697846153846097,longitudinal,30.006183669389078,30.006183669389078,0.08819614812996042,550.5005233888144,1.2228303392301367,0.3194831707599491,10.798250263114202,0.0,-0.0,40.0,0.0,0.0,-11.036019421549176,0.0,0.0,0.0
1.0400000000000005,19.200630168973817,0.0,19.342308611651177,23.3265971288077,0.0,19.509233246566062,0.0,0.8888343381177162,0.0,0.0,-0.05018875614584763,0.0,20.687999999999942,longitudinal,30.20767111593135,30.20767111593135,0.08878876165813426,557.8976456162856,1.2227848118326958,0.32155893703834176,10.910339551896845,0.0,-0.0,40.0,0.0,0.0,-10.982141845082968,0.0,0.0,0.0
1.0600000000000005,19.66716211154997,0.0,19.7324932765825,23.537429576443564,0.0,19.57221589851846,0.0,0.8878305629947993,0.0,0.0,-0.05179829258537377,0.0,20.678153846153787,longitudinal,30.409543164582697,30.409543164582697,0.08938251210648569,565.3580877016185,1.2227391371144145,0.3235913467881204,11.018982352963324,0.0,-0.0,40.0,0.0,0.0,-10.926456260449124,0.0,0.0,0.0
1.0800000000000005,20.13791070307884,0.0,20.123937594552867,23.74857247740561,0.0,19.635041319052878,0.0,0.8867945971430915,0.0,0.0,-0.05342293841255383,0.0,20.668307692307632,longitudinal,30.61179880771888,30.61179880771888,0.08997739655085948,572.882087015254,1.2226933154229456,0.32557903387501536,11.124207650691199,0.0,-0.0,40.0,0.0,0.0,-10.868944182325764,0.0,0.0,0.0
1.1000000000000005,20.612882152626952,0.0,20.516638420933926,23.960033889625873,0.0,19.697702078999715,0.0,0.8857261383748405,0.0,0.0,-0.05506218302892503,0.0,20.658461538461477,longitudinal,30.814437238338478,30.814437238338478,0.09057341265661548,580.4698879634955,1.2226473471230286,0.32752070658368615,11.226044089928372,0.0,-0.0,40.0,0.0,0.0,-10.809587711303228,0.0,0.0,0.0
1.1200000000000006,21.092082830419468,0.0,20.91059246251392,24.171821957665237,0.0,19.760190672481382,0.0,0.8846248947142623,0.0,0.0,-0.056715515738200654,0.0,20.648615384615322,longitudinal,31.017457845301408,31.017457845301408,0.09117055866463883,588.1217420513797,1.2226012325966658,0.32941514596156285,11.32451999212125,0.0,-0.0,40.0,0.0,0.0,-10.748369533298698,0.0,0.0,0.0
1.1400000000000006,21.575519269572773,0.0,21.305796275963548,24.383944909418418,0.0,19.822499517901353,0.0,0.8834905843994987,0.0,0.0,-0.05838242547432929,0.0,20.638769230769167,longitudinal,31.22086020861513,31.22086020861513,0.09176883337749,595.837907941674,1.2225549722433058,0.3312612042225806,11.419663371489746,0.0,-0.0,40.0,0.0,0.0,-10.685272919332032,0.0,0.0,0.0
1.1600000000000006,22.06319816776114,0.0,21.702246266321573,24.596411052780432,0.0,19.884620958917697,0.0,0.882322935890012,0.0,0.0,-0.06006240055002721,0.0,20.628923076923012,longitudinal,31.424644094766638,31.424644094766638,0.09236823614568913,603.6186515099563,1.22250856648002,0.33305780320779166,11.51150195121933,0.0,-0.0,40.0,0.0,0.0,-10.62028172563792,0.0,0.0,0.0
1.1800000000000006,22.55512638881675,0.0,22.09993868549993,24.809228772273475,0.0,19.94654726540336,0.0,0.8811216878790118,0.0,0.0,-0.06175492842494983,0.0,20.619076923076857,longitudinal,31.628809452098707,31.628809452098707,0.09296876685412998,611.4642458957516,1.2224620157416775,0.33480393289986027,11.600063179641277,0.0,-0.0,40.0,0.0,0.0,-10.55338039408959,0.0,0.0,0.0
1.2000000000000006,23.051310964262218,0.0,22.498869630807995,25.022406525633254,0.0,20.00827063439536,0.0,0.8798865893105123,0.0,0.0,-0.06345949549271011,0.0,20.609230769230702,longitudinal,31.83335640622855,31.83335640622855,0.09357042590861847,619.3749715496813,1.2224153204811143,0.3364986499885187,11.685374246375144,0.0,-0.0,40.0,0.0,0.0,-10.484553952910796,0.0,0.0,0.0
1.2200000000000006,23.551759094774884,0.0,22.899035043495903,25.23595284035404,0.0,20.069783191035075,0.0,0.8786173994006585,0.0,0.0,-0.06517558688599127,0.0,20.599384615384547,longitudinal,32.038285255507375,32.038285255507375,0.09417321422253094,627.3511162766042,1.2223684811693085,0.3381410764840988,11.767462098408368,0.0,-0.0,40.0,0.0,0.0,-10.413788017653127,0.0,0.0,0.0
1.2400000000000007,24.056478151581963,0.0,23.300430707316604,25.449876310191726,0.0,20.131076989501803,0.0,0.8773138876629387,0.0,0.0,-0.06690268629903984,0.0,20.589538461538393,longitudinal,32.243596466519165,32.243596466519165,0.09477713320358745,635.3929752747031,1.222321498295548,0.33973039837635627,11.846353456091855,0.0,-0.0,40.0,0.0,0.0,-10.341068792417914,0.0,0.0,0.0
1.2600000000000007,24.5654756777858,0.0,23.70305224710664,25.664185591624413,0.0,20.192144013941647,0.0,0.8759758339369581,0.0,0.0,-0.06864027582686022,0.0,20.579692307692238,longitudinal,32.44929066961722,32.44929066961722,0.0953821847407357,643.5008511704887,1.2222743723675893,0.3412658643358082,11.92207482902873,0.0,-0.0,40.0,0.0,0.0,-10.266383071300805,0.0,0.0,0.0
1.2800000000000007,25.078759389618288,0.0,24.106895127385474,25.878889400270126,0.0,20.252976179393894,0.0,0.8746030284204211,0.0,0.0,-0.07038783582046777,0.0,20.569846153846083,longitudinal,32.65536865449695,32.65536865449695,0.09598837119114124,651.6750540496969,1.2222271039118315,0.34274678445495016,11.994652531839112,0.0,-0.0,40.0,0.0,0.0,-10.189718240040362,0.0,0.0,0.0
1.3000000000000007,25.596337177623692,0.0,24.51195465097335,26.09399650726137,0.0,20.3135653327169,0.0,0.8731952717040121,0.0,0.0,-0.07214484475758882,0.0,20.559999999999928,longitudinal,32.861831365803546,32.861831365803546,0.09659569536727994,659.9159014840347,1.2221796934734679,0.3441725290267125,12.064112699781202,0.0,-0.0,40.0,0.0,0.0,-10.111062277850516,0.0,0.0,0.0
1.3200000000000007,26.11821710776892,0.0,24.91822595762769,26.309515735576436,0.0,20.3739032535156,0.0,0.8717523748088603,0.0,0.0,-0.07391077912822856,0.0,20.550153846153773,longitudinal,33.0686798987732,33.0686798987732,0.09720416052412843,668.2237185537606,1.2221321416166508,0.3455425273576513,12.130481304213518,0.0,-0.0,40.0,0.0,0.0,-10.030403759419086,0.0,0.0,0.0
1.3400000000000007,26.644407422480448,0.0,25.325704022698,26.5254559563274,0.0,20.433981655072607,0.0,0.8702741592262955,0.0,0.0,-0.07568511333455694,0.0,20.540307692307618,longitudinal,33.275915494906485,33.275915494906485,0.09781377034644934,676.5988378660577,1.2220844489246474,0.3468562666133998,12.193784167882276,0.0,-0.0,40.0,0.0,0.0,-9.947731857054352,0.0,0.0,0.0
1.3600000000000008,27.174916541606997,0.0,25.734383655799455,26.741826085004934,0.0,20.493792185285027,0.0,0.8687604569596044,0.0,0.0,-0.07746731960459134,0.0,20.530461538461463,longitudinal,33.48353953767296,33.48353953767296,0.09842452893616725,685.0415995691861,1.2220366159999934,0.3481132906940084,12.254046980020162,0.0,-0.0,40.0,0.0,0.0,-9.863036342962918,0.0,0.0,0.0
1.3800000000000008,27.709753063307097,0.0,26.144259499505157,26.958635077680192,0.0,20.553326427608873,0.0,0.8672111105675127,0.0,0.0,-0.07925686791918206,0.0,20.520615384615308,longitudinal,33.691553548245594,33.691553548245594,0.09903644079983259,693.5523513623782,1.2219886434646425,0.34931319913686454,12.311295311243512,0.0,-0.0,40.0,0.0,0.0,-9.77630759164213,0.0,0.0,0.0
1.4000000000000008,28.2489257648607,0.0,26.555326028057333,27.175891927164066,0.0,20.61257590201318,0.0,0.8656259732091289,0.0,0.0,-0.08105322595183227,0.0,20.510769230769153,longitudinal,33.89995918126413,33.89995918126413,0.09964951083617003,702.1314485014659,1.2219405319601242,0.3504556460449614,12.365554628235701,0.0,-0.0,40.0,0.0,0.0,-9.687536582371456,0.0,0.0,0.0
1.4200000000000008,28.79244360340398,0.0,26.967577546097598,27.419559578800687,0.0,20.64698584519678,0.0,0.8640049086900925,0.0,0.0,-0.16578177321324764,0.0,20.500923076922998,longitudinal,34.1087582206265,34.1087582206265,0.10026374432370888,710.7792538002101,1.2218922821476825,0.3515403390383754,12.416850308206108,0.0,-0.0,40.0,0.0,0.0,-9.596714901787552,0.0,-6.0,0.0
1.4400000000000008,29.340834794979994,0.0,27.380517263001533,27.663649148083618,0.0,20.681022494632938,0.0,0.8606892732258276,0.0,0.0,-0.24656492248562945,0.0,20.491076923076843,longitudinal,34.32390234205832,34.32390234205832,0.10089663651230386,719.7456399993428,1.221843894708427,0.353820383649121,12.524010869966856,0.0,-0.0,40.0,0.0,0.0,-9.503834746528359,0.0,-6.0,0.0
1.4600000000000009,29.894107777941667,0.0,27.79413771289419,27.90857817376855,0.0,20.714296065774228,0.0,0.855757974776115,0.0,0.0,-0.32354754088222404,0.0,20.481230769230688,longitudinal,34.539574050815695,34.539574050815695,0.10153108625442736,728.7900839015631,1.2217954279624128,0.35400226088979864,12.532500220736573,0.0,-0.0,40.0,0.0,0.0,-9.31386282802208,0.0,-6.0,0.0
1.4800000000000009,30.45227934141704,0.0,28.208423634209677,28.15474193052385,0.0,20.74643120271241,0.0,0.8492870239584707,0.0,0.0,-0.39686845760097605,0.0,20.471384615384533,longitudinal,34.755874283089184,34.755874283089184,0.10216739028726893,737.9172779810968,1.221746882793192,0.3521978106166268,12.447788408218667,0.0,-0.0,40.0,0.0,0.0,-9.031320239334146,0.0,-6.0,0.0
1.5000000000000009,31.015374180027518,0.0,28.623352258263925,28.40251193927014,0.0,20.77706446642822,0.0,0.841349654806451,0.0,0.0,-0.4666607400062943,0.0,20.461538461538378,longitudinal,34.97290237917461,34.97290237917461,0.10280584065311163,747.1319543285275,1.221698260999134,0.3485570881145552,12.275113065581296,0.0,-0.0,40.0,0.0,0.0,-8.660562068046394,0.0,-6.0,0.0
1.520000000000001,31.58342441881292,0.0,29.03889354759249,28.65223474506049,0.0,20.80584220120303,0.0,0.832016440006325,0.0,0.0,-0.5330519539353346,0.0,20.451692307692223,longitudinal,35.19075293741947,35.19075293741947,0.10344671545116087,756.4387481166756,1.2216495652594184,0.34326065027318037,12.01949023201506,0.0,-0.0,40.0,0.0,0.0,-8.205784315198333,0.0,-6.0,0.0
1.540000000000001,32.15646911371413,0.0,29.45501039161655,28.904230927762136,0.0,20.832418752610426,0.0,0.8213554009276183,0.0,0.0,-0.5961644094675018,0.0,20.44184615384607,longitudinal,35.40951320743357,35.40951320743357,0.10409027117428987,765.842079481733,1.2216007991059281,0.33651276348622494,11.685724543790856,0.0,-0.0,40.0,0.0,0.0,-7.67103049786208,0.0,-6.0,0.0
1.560000000000001,32.734553732269376,0.0,29.87165876666876,29.15879431657325,0.0,20.856455010492397,0.0,0.8094321127382682,0.0,0.0,-0.656115393405826,0.0,20.431999999999913,longitudinal,35.629260960754095,35.629260960754095,0.10473673644906124,775.3460520502119,1.2215519669001582,0.32853543884787734,11.278418821359738,0.0,-0.0,40.0,0.0,0.0,-7.060197953428143,0.0,-6.0,0.0
1.580000000000001,33.31772961860084,0.0,30.288787866878607,29.416191384343506,0.0,20.87761725068217,0.0,0.7963098048701518,0.0,0.0,-0.7130173896942104,0.0,20.42215384615376,longitudinal,35.85006278377931,35.85006278377931,0.10538630701684852,784.9543665023342,1.2215030738143082,0.3195632099969736,10.801983085164204,0.0,-0.0,40.0,0.0,0.0,-6.377043862260203,0.0,-6.0,0.0
1.600000000000001,33.906053446287714,0.0,30.70634021189225,29.676660801857356,0.0,20.895576249857598,0.0,0.7820494570762677,0.0,0.0,-0.7669782889441523,0.0,20.412307692307603,longitudinal,36.07197274375643,36.07197274375643,0.10603914181143072,794.6702477142171,1.2214541258158003,0.30983857766547596,10.260643036995317,0.0,-0.0,40.0,0.0,0.0,-5.62519100394582,0.0,-6.0,0.0
1.620000000000001,34.49958666232486,0.0,31.124251736889402,29.940413135769898,0.0,20.910006648714077,0.0,0.7667098912973849,0.0,0.0,-0.8181015881755969,0.0,20.40246153846145,longitudinal,36.295031383952676,36.295031383952676,0.10669536000413449,804.4963841631995,1.2214051296545079,0.2996080527151922,9.658448045656716,0.0,-0.0,40.0,0.0,0.0,-4.808133260967568,0.0,-6.0,0.0
1.640000000000001,35.09839492504026,0.0,31.542451869863683,30.20763067683567,0.0,20.92058653957147,0.0,0.7503478595338731,0.0,0.0,-0.8664865817949223,0.0,20.392615384615294,longitudinal,36.51926500889427,36.51926500889427,0.1073550389015756,814.4348784121912,1.221356092852079,0.28911873629569274,8.999278675944147,0.0,-0.0,40.0,0.0,0.0,-3.9292408822742733,0.0,-6.0,0.0
1.660000000000001,35.70254753857697,0.0,31.960863600655113,30.478467387512115,0.0,20.926997255528665,0.0,0.7330181278979744,0.0,0.0,-0.9122285447433667,0.0,20.38276923076914,longitudinal,36.744685224775054,36.744685224775054,0.10801821259344221,824.4872076095952,1.2213070236927446,0.27861538182611506,8.286853798977974,0.0,-0.0,40.0,0.0,0.0,-2.9917655179660514,0.0,-6.0,0.0
1.680000000000001,36.31211688632722,0.0,32.37940354576568,30.728308779718375,0.0,20.95919128445234,0.0,0.7147735570031069,0.0,0.0,-0.8652163797657508,0.0,20.372923076922984,longitudinal,36.97128870386511,36.97128870386511,0.10868487125872116,834.6541930512706,1.2212579312151008,0.26833788888816074,7.524737320084172,0.0,-0.0,40.0,0.0,0.0,-1.998845035134713,0.0,0.5255359126424591,0.0
1.700000000000001,36.92668306192159,0.0,32.79858737145473,30.95966301041351,0.0,21.010585143877204,0.0,0.6974692294077918,0.0,0.0,-0.7652163797657509,0.0,20.36307692307683,longitudinal,37.195653775138574,37.195653775138574,0.10934495608025849,844.781377358091,1.2212088252043862,0.25783497414783985,6.656358248894301,0.0,-0.0,40.0,0.0,0.0,-0.953508123831584,0.0,6.0,0.0
1.720000000000001,37.54587632212986,0.0,33.218799074332274,31.19551196849188,0.0,21.058218238618515,0.0,0.6821649018124769,0.0,0.0,-0.6652163797657509,0.0,20.353230769230674,longitudinal,37.41584452884206,37.41584452884206,0.10999277654074835,854.7784272705278,1.2211596451632056,0.24873234754688583,5.7995072362202595,0.0,-0.0,40.0,0.0,0.0,0.03795681469173508,0.0,6.0,0.0
1.740000000000001,38.16978656149969,0.0,33.63996343910465,31.43527493349856,0.0,21.102459839144885,0.0,0.6688605742171618,0.0,0.0,-0.5652163797657509,0.0,20.34338461538452,longitudinal,37.637860225597386,37.637860225597386,0.11064596929730394,864.9176614783535,1.2211103460488333,0.24191994755792193,5.064245582424122,0.0,-0.0,40.0,0.0,0.0,0.9148301941888767,0.0,6.0,0.0
1.7600000000000011,38.798492060169664,0.0,34.06201263588755,31.678396535479173,0.0,21.143706124218692,0.0,0.657556246621847,0.0,0.0,-0.4652163797657509,0.0,20.333538461538364,longitudinal,37.86146221961542,37.86146221961542,0.11130383279193445,875.1895173013345,1.2210609366962377,0.2369319375947501,4.449476576770124,0.0,-0.0,40.0,0.0,0.0,1.6771120146598661,0.0,6.0,0.0
1.7800000000000011,39.432059990879246,0.0,34.48488675837192,31.924343740030977,0.0,21.18237613769999,0.0,0.6482519190265319,0.0,0.0,-0.36521637976575094,0.0,20.32369230769221,longitudinal,38.08644267618573,38.08644267618573,0.11196575603852103,885.5856156256267,1.2210114250729323,0.23338193902332294,3.954119092496953,0.0,-0.0,40.0,0.0,0.0,2.3248022761046783,0.0,6.0,0.0
1.8000000000000012,40.070546865679866,0.0,34.908534281125924,32.172602599534116,0.0,21.21890791136855,0.0,0.6409475914312166,0.0,0.0,-0.2668278261931409,0.0,20.313846153846054,longitudinal,38.31261909698496,38.31261909698496,0.11263120253136569,896.0985427588168,1.2209618182159714,0.2309607503452598,3.5771097610283915,0.0,-0.0,40.0,0.0,0.0,2.8579009785233382,0.0,6.0,0.0
1.8200000000000012,40.71399891767055,0.0,35.332912439353294,32.422674801475225,0.0,21.253754732452183,0.0,0.6356110349073538,0.0,0.0,-0.1730345338249662,0.0,20.3039999999999,longitudinal,38.539828891403864,38.539828891403864,0.11329969428851283,906.7216266293559,1.2209121221784491,0.22943412488614592,3.317404618319943,0.0,-0.0,40.0,0.0,0.0,3.2764081219158463,0.0,6.0,0.0
1.8400000000000012,41.362452413700055,0.0,35.75798753400234,32.67408167445304,0.0,21.287373822100705,0.0,0.6321503442308547,0.0,0.0,-0.08368030062869894,0.0,20.294153846153744,longitudinal,38.76792400309114,38.76792400309114,0.11397079605688189,917.4487074968316,1.2208623419851041,0.22863062141226137,3.1721337527540827,0.0,-0.0,40.0,0.0,0.0,3.582170287866189,0.0,6.0,0.0
1.8600000000000012,42.01593404718911,0.0,36.18373501044435,32.92637440772023,0.0,21.32020839529003,0.0,0.630476738218281,0.0,0.0,0.0013849868055811482,0.0,20.28430769230759,longitudinal,38.99676778286486,38.99676778286486,0.1146441061208359,928.274007321483,1.2208124815966874,0.22843169694507978,3.135045210474003,0.0,-0.0,40.0,0.0,0.0,3.7804532578298624,0.0,6.0,0.0
1.8800000000000012,42.67446153534352,0.0,36.61013917835015,33.17912950405427,0.0,21.35268497175181,0.0,0.6305044379543925,0.0,0.0,0.08230562762038844,0.0,20.274461538461434,longitudinal,39.2262337939289,39.2262337939289,0.11531925279090399,939.1920869357227,1.2207625439008989,0.22878399605067,3.20013216151006,0.0,-0.0,40.0,0.0,0.0,3.876343818918055,0.0,6.0,0.0
1.9000000000000012,43.3380441254246,0.0,37.03719287778519,33.431944731647675,0.0,21.385211168072257,0.0,0.6321505505068004,0.0,0.0,0.1592203729432435,0.0,20.26461538461528,longitudinal,39.45620090872511,39.45620090872511,0.11599587998985852,950.1976229986421,1.2207125307454043,0.22968842994107178,3.3616236020904764,0.0,-0.0,40.0,0.0,0.0,3.87475674094524,0.0,6.0,0.0
1.9200000000000013,44.00668302005756,0.0,37.46489710114663,33.684435553877805,0.0,21.418173901871906,0.0,0.6353349579656653,0.0,0.0,0.23226268386268764,0.0,20.254769230769124,longitudinal,39.68654917277373,39.68654917277373,0.11667363509315162,961.2852141909694,1.2206624429771658,0.23119046538426927,3.61397530742109,0.0,-0.0,40.0,0.0,0.0,3.7804414390887615,0.0,6.0,0.0
1.9400000000000013,44.68037173113511,0.0,37.89326057918407,33.93623201282904,0.0,21.451937949355415,0.0,0.6399802116429192,0.0,0.0,0.3015609812201972,0.0,20.24492307692297,longitudinal,39.91715636006871,39.91715636006871,0.1173521588020279,972.449214392087,1.2206122804869342,0.23337151194533357,3.951861085274654,0.0,-0.0,40.0,0.0,0.0,3.5979883314458205,0.0,6.0,0.0
1.9600000000000013,45.35909637139169,0.0,38.322299338171185,34.18697604052256,0.0,21.486844806622397,0.0,0.6460114312673229,0.0,0.0,0.3672388874887585,0.0,20.235076923076814,longitudinal,40.14789515045038,40.14789515045038,0.11803107684483578,983.6835907431491,1.2205620422579488,0.2363413052712589,4.370164360272034,0.0,-0.0,40.0,0.0,0.0,3.3318349009715473,0.0,6.0,0.0
1.9800000000000013,46.04283589220214,0.0,38.75203623430363,34.436319170715386,0.0,21.523211813051283,0.0,0.6533562090170979,0.0,0.0,0.4294154611172688,0.0,20.22523076923066,longitudinal,40.378630865089264,40.378630865089264,0.11870999331884274,994.9818046608322,1.2205117264180163,0.2402311928233191,4.8639701034570075,0.0,-0.0,40.0,0.0,0.0,2.9862714711767393,0.0,6.0,0.0
2.0000000000000013,46.73156227561645,0.0,39.182500470564655,34.69603873609195,0.0,21.547841476632218,0.0,0.6619445182394434,0.0,0.0,0.4467676591180136,0.0,20.215384615384504,longitudinal,40.60921970164965,40.60921970164965,0.11938848550082974,1006.3367140204988,1.2204613302942433,0.24518823656981215,5.428557110648558,0.0,-0.0,40.0,0.0,0.0,2.5654467046530356,0.0,2.997706779910839,0.0
2.0200000000000014,47.425483050338286,0.0,39.6134573000973,34.97464508575991,0.0,21.54802247853711,0.0,0.6708798714218038,0.0,0.0,0.3854604837718403,0.0,20.20553846153835,longitudinal,40.84268081649961,40.84268081649961,0.12007542960834273,1017.898666412809,1.220410850469825,0.2516294965440422,6.0844376686069594,0.0,-0.0,40.0,0.0,0.0,2.0733728330593535,0.0,-2.5912663697931593,0.0
2.0400000000000014,48.12497595205348,0.0,40.04441774966804,35.26297527701944,0.0,21.533476887921026,0.0,0.6785890810972406,0.0,0.0,0.2854604837718403,0.0,20.195692307692195,longitudinal,41.079716060489154,41.079716060489154,0.1207728888778089,1029.705296784416,1.2203603144798854,0.25950768804798946,6.801191999821217,0.0,-0.0,40.0,0.0,0.0,1.5614148072513145,0.0,-6.0,0.0
2.0600000000000014,48.83023545759387,0.0,40.47508728742646,35.54981812496847,0.0,21.52099173303145,0.0,0.6842982907726771,0.0,0.0,0.1854604837718403,0.0,20.18584615384604,longitudinal,41.31789022046399,41.31789022046399,0.12147370332982672,1041.636934859767,1.220309779666418,0.26764674612798667,7.469797719662255,0.0,-0.0,40.0,0.0,0.0,1.1197096294673692,0.0,-6.0,0.0
2.0800000000000014,49.541231820093245,0.0,40.90550712208709,35.835545923186906,0.0,21.510012104025694,0.0,0.6880075004481139,0.0,0.0,0.08818292437357207,0.0,20.175999999999885,longitudinal,41.55649953847827,41.55649953847827,0.12217580356406471,1053.6589002072312,1.2202592805648578,0.2748853051971389,8.017715334539274,0.0,-0.0,40.0,0.0,0.0,0.7925960107096014,0.0,-6.0,0.0
2.1000000000000014,50.257942738556984,0.0,41.335707364167604,36.12054732370808,0.0,21.49999279317104,0.0,0.689771158935585,0.0,0.0,-0.004782376576215622,0.0,20.16615384615373,longitudinal,41.795537708326826,41.795537708326826,0.12287917110928187,1065.7712368103869,1.220208812340141,0.2808995917408797,8.445960813477024,0.0,-0.0,40.0,0.0,0.0,0.5800739509779855,0.0,-6.0,0.0
2.1200000000000014,50.98035368503115,0.0,41.765707220031025,36.40521164424585,0.0,21.49040993738101,0.0,0.6896755114040607,0.0,0.0,-0.09356926887752616,0.0,20.156307692307575,longitudinal,42.03502859604882,42.03502859604882,0.12358387618672019,1077.9755304533953,1.2201583714590571,0.2854887667105041,8.758646725320615,0.0,-0.0,40.0,0.0,0.0,0.4790237631434608,0.0,-6.0,0.0
2.1400000000000015,51.708457917916064,0.0,42.19551541877865,36.689917693579496,0.0,21.480766510225564,0.0,0.68780412602651,0.0,0.0,-0.1783066600458788,0.0,20.14646153846142,longitudinal,42.27501808561433,42.27501808561433,0.12429005373812255,1090.2745319759265,1.2201079556672956,0.28855787716576525,8.96165990663095,0.0,-0.0,40.0,0.0,0.0,0.4845039630206509,0.0,-6.0,0.0
2.1600000000000015,52.442256271787656,0.0,42.62513074898316,36.975030095580365,0.0,21.47058889715874,0.0,0.6842379928255924,0.0,0.0,-0.2591187527256802,0.0,20.136615384615265,longitudinal,42.51556644604969,42.51556644604969,0.12499788098644127,1102.671793561721,1.2200575639391882,0.2900806331394895,9.060673151815951,0.0,-0.0,40.0,0.0,0.0,0.5917264469968031,0.0,-6.0,0.0
2.1800000000000015,53.181756873699264,0.0,43.05454252692633,37.26089613548235,0.0,21.459423869075952,0.0,0.6790556177710787,0.0,0.0,-0.3361252683764613,0.0,20.12676923076911,longitudinal,42.756742604645055,42.756742604645055,0.1257075606000692,1115.1713913007468,1.2200071964145933,0.290088820504001,9.06115377842758,0.0,-0.0,40.0,0.0,0.0,0.7960508285908596,0.0,-6.0,0.0
2.2000000000000015,53.92697479640891,0.0,43.48373100430785,37.547843070702115,0.0,21.446835942654655,0.0,0.6723331124035496,0.0,0.0,-0.40944165761521717,0.0,20.116923076922955,longitudinal,42.99861920587532,42.99861920587532,0.12641930616656408,1127.7776791057975,1.2199568543438197,0.28866279912967935,8.968371853047563,0.0,-0.0,40.0,0.0,0.0,1.092979047068374,0.0,-6.0,0.0
2.2200000000000015,54.67793165782295,0.0,43.91266772316094,37.8361758560443,0.0,21.432405111923853,0.0,0.6641442792512455,0.0,0.0,-0.47917929791758607,0.0,20.1070769230768,longitudinal,43.24126838117976,43.24126838117976,0.12713332975587202,1140.4950715824164,1.2199065400396543,0.28592298971569535,8.787408042811913,0.0,-0.0,40.0,0.0,0.0,1.478150232381831,0.0,-6.0,0.0
2.2400000000000015,55.43465517494384,0.0,44.34131582539942,38.11213979573264,0.0,21.436445431929364,0.0,0.6545606932928938,0.0,0.0,-0.48854971571253764,0.0,20.097230769230645,longitudinal,43.48475816066049,43.48475816066049,0.1278498313704391,1153.3278535840584,1.2198562568355893,0.2820222611359048,8.523161076561202,0.0,-0.0,40.0,0.0,0.0,1.9473358111456667,0.0,-1.8802613690895773,0.0
2.2600000000000016,56.196897970858494,0.0,44.77004473403801,38.37190551793586,0.0,21.46139163603658,0.0,0.6447896989786432,0.0,0.0,-0.42957885276482943,0.0,20.08738461538449,longitudinal,43.727067047374135,43.727067047374135,0.1285628675411112,1166.1689386463684,1.2198060090493774,0.27668403570024425,8.147676784222318,0.0,-0.0,40.0,0.0,0.0,2.4964348391600595,0.0,3.0093893807456435,0.0
2.2800000000000016,56.96433608121721,0.0,45.199272566758744,38.622002517140814,0.0,21.497614145205908,0.0,0.6361981219233468,0.0,0.0,-0.33190814455728024,0.0,20.077538461538335,longitudinal,43.965832916399265,43.965832916399265,0.1292654937831557,1178.8905593726295,1.2197557533746397,0.2709685931297885,7.725460557124879,0.0,-0.0,40.0,0.0,0.0,3.05627157501294,0.0,6.0,0.0
2.3000000000000016,57.73677613156003,0.0,45.62922484966286,38.874284064983485,0.0,21.531863753275534,0.0,0.6295599590322012,0.0,0.0,-0.23870040943039406,0.0,20.06769230769218,longitudinal,44.201883357727965,44.201883357727965,0.12996014379914542,1191.5342045098082,1.2197054408027301,0.2661474624969875,7.350466871441257,0.0,-0.0,40.0,0.0,0.0,3.5485326796428627,0.0,6.0,0.0
2.3200000000000016,58.5142618128597,0.0,46.05986212472837,39.128248172184065,0.0,21.564580260747444,0.0,0.6247859508435933,0.0,0.0,-0.14982465542774803,0.0,20.057846153846025,longitudinal,44.43907197787381,44.43907197787381,0.1306581480517204,1204.3063681073618,1.2196550449050294,0.2629370296760119,7.089739193389457,0.0,-0.0,40.0,0.0,0.0,3.928871397025866,0.0,6.0,0.0
2.3400000000000016,59.296826776303384,0.0,46.49115372994332,39.383426145900735,0.0,21.5961928062837,0.0,0.6217894577350385,0.0,0.0,-0.06515420651839546,0.0,20.04799999999987,longitudinal,44.67718575342726,44.67718575342726,0.13135888022165065,1217.1964164809062,1.2196045703143197,0.26111421055458484,6.937312629522464,0.0,-0.0,40.0,0.0,0.0,4.202401917593991,0.0,6.0,0.0
2.3600000000000017,60.0844952992214,0.0,46.92307758606899,39.63937770469605,0.0,21.627116818742664,0.0,0.6204863736046704,0.0,0.0,0.015433482579113825,0.0,20.038153846153715,longitudinal,44.91603053160194,44.91603053160194,0.13206176947279263,1230.1945067234194,1.2195540206318853,0.26052679494486225,6.887424912317807,0.0,-0.0,40.0,0.0,0.0,4.374088326054221,0.0,6.0,0.0
2.3800000000000017,60.87728285331532,0.0,47.35561992244384,39.895686604792935,0.0,21.657751480953596,0.0,0.6207950432562526,0.0,0.0,0.09205701163491505,0.0,20.02830769230756,longitudinal,45.155425440439565,45.155425440439565,0.13276628401826174,1243.2913041233005,1.2195033984526715,0.26108273988389114,6.934510404769574,0.0,-0.0,40.0,0.0,0.0,4.448749547074787,0.0,6.0,0.0
2.4000000000000017,61.67519658541118,0.0,47.788774952062916,40.15195676027121,0.0,21.688477636506075,0.0,0.6226361834889511,0.0,0.0,0.16483121882242957,0.0,20.018461538461406,longitudinal,45.395198081720075,45.395198081720075,0.13347191698736013,1256.4777338523645,1.2194527053975661,0.26274053319860774,7.073194100251619,0.0,-0.0,40.0,0.0,0.0,4.431064078775355,0.0,6.0,0.0
2.4200000000000017,62.4782357206166,0.0,48.222544504793035,40.407808836191634,0.0,21.719656080543203,0.0,0.6259328078653996,0.0,0.0,0.2338673623826629,0.0,20.00861538461525,longitudinal,45.63518044083877,45.63518044083877,0.13417817440006027,1269.7447646843439,1.2194019421516438,0.2655005424358498,7.298285692926855,0.0,-0.0,40.0,0.0,0.0,4.325574513949994,0.0,6.0,0.0
2.4400000000000017,63.28639189734044,0.0,48.6569376264039,40.662877291050016,0.0,21.75162618416734,0.0,0.630610155113053,0.0,0.0,0.2992732994538044,0.0,19.998769230769096,longitudinal,45.87520545130325,45.87520545130325,0.134884565065807,1283.0832226130249,1.219351108507288,0.26939726958153726,7.60477377260162,0.0,-0.0,40.0,0.0,0.0,4.136691850539548,0.0,6.0,0.0
2.4600000000000017,64.09964944316144,0.0,49.09197015008725,40.92343245827246,0.0,21.777166801919094,0.0,0.6365956211021291,0.0,0.0,0.3385012425825303,0.0,19.98892307692294,longitudinal,46.115104155176155,46.115104155176155,0.1355905922341927,1296.483632354691,1.2193002034113265,0.2744924373690592,7.98782018113706,0.0,-0.0,40.0,0.0,0.0,3.8686995939318796,0.0,4.357245181623107,0.0
2.4800000000000018,64.91811809232689,0.0,49.52751348612563,41.197845288322554,0.0,21.785138570190572,0.0,0.6433656459537795,0.0,0.0,0.32016552203171794,0.0,19.979076923076786,longitudinal,46.35700937383035,46.35700937383035,0.13630252702845663,1310.0664167025561,1.2192492250153752,0.28104282955690035,8.454826256865292,0.0,-0.0,40.0,0.0,0.0,3.525757654338721,0.0,0.3652575051002103,0.0
2.5000000000000018,65.74207499809334,0.0,49.96321625752944,41.4855665702569,0.0,21.77369398488546,0.0,0.6497689563944138,0.0,0.0,0.24378566272685026,0.0,19.96923076923063,longitudinal,46.60316211291854,46.60316211291854,0.1370269585657739,1323.960669383341,1.2191981883943874,0.28904593414211177,8.992556691299773,0.0,-0.0,40.0,0.0,0.0,3.1378638031404686,0.0,-3.854613493312404,0.0
2.520000000000002,66.57178632949848,0.0,50.39869013722715,41.77895583060755,0.0,21.752806339449496,0.0,0.6546446696489507,0.0,0.0,0.14378566272685026,0.0,19.959384615384476,longitudinal,46.85238503430379,46.85238503430379,0.13776042476023043,1338.102967985507,1.2191471347261733,0.2976399379404148,9.536289940944203,0.0,-0.0,40.0,0.0,0.0,2.7709811399800706,0.0,-6.0,0.0
2.540000000000002,67.40736544611063,0.0,50.83374626401614,42.07135210004092,0.0,21.733176583371414,0.0,0.6575203829034879,0.0,0.0,0.045230679809515395,0.0,19.94953846153832,longitudinal,47.102714719402854,47.102714719402854,0.13849715205886304,1352.3833822761492,1.219096109512706,0.30543595204539775,10.003997659939085,0.0,-0.0,40.0,0.0,0.0,2.491623348379109,0.0,-6.0,0.0
2.560000000000002,68.24879248811145,0.0,51.26840979568357,42.363149801592755,0.0,21.71425919249422,0.0,0.6584249964996784,0.0,0.0,-0.048994270271246504,0.0,19.939692307692166,longitudinal,47.35324309833088,47.35324309833088,0.1392344701761318,1366.7505142999678,1.2190451348794962,0.31150052074926826,10.353216770312214,0.0,-0.0,40.0,0.0,0.0,2.3268571158042985,0.0,-6.0,0.0
2.580000000000002,69.0960554841433,0.0,51.702694979533455,42.65474875398902,0.0,21.695522204082234,0.0,0.6574451110942534,0.0,0.0,-0.13900080597001627,0.0,19.92984615384601,longitudinal,47.60404933817089,47.60404933817089,0.13997261192912505,1381.2091275119483,1.2189942078742673,0.3156673535715183,10.586465232635076,0.0,-0.0,40.0,0.0,0.0,2.2750265746524287,0.0,-6.0,0.0
2.600000000000002,69.94915045922309,0.0,52.1366054236151,42.9465371616075,0.0,21.67645969908353,0.0,0.6546650949748529,0.0,0.0,-0.224897241853085,0.0,19.919999999999856,longitudinal,47.855232472256915,47.855232472256915,0.14071186853702194,1395.765241816079,1.218943326823379,0.3179038245788198,10.709536065253422,0.0,-0.0,40.0,0.0,0.0,2.3311698727897494,0.0,-6.0,0.0
2.620000000000002,70.80808120245524,0.0,52.57013461759677,43.23888736548945,0.0,21.656588465448337,0.0,0.6501671501377912,0.0,0.0,-0.3067887656862756,0.0,19.9101538461537,longitudinal,48.106901368299816,48.106901368299816,0.1414525601249726,1410.4255758759812,1.2188924912998473,0.31824322304164365,10.728041570458648,0.0,-0.0,40.0,0.0,0.0,2.4904530634097344,0.0,-6.0,0.0
2.640000000000002,71.67285894976503,0.0,53.003266386905736,43.53215218135845,0.0,21.6354450730008,0.0,0.6440313748240656,0.0,0.0,-0.38477760131811917,0.0,19.900307692307546,longitudinal,48.35916877456925,48.35916877456925,0.14219501821861374,1425.1972116764678,1.2188417020621283,0.3167743901270491,10.647419643030547,0.0,-0.0,40.0,0.0,0.0,2.748166319056027,0.0,-6.0,0.0
2.660000000000002,72.5435019933922,0.0,53.43597528836575,43.816282320463706,0.0,21.62889160264204,0.0,0.6363358227977032,0.0,0.0,-0.4154943596776942,0.0,19.89046153846139,longitudinal,48.612146188455675,48.612146188455675,0.14293957065611795,1440.087297131122,1.218790961000722,0.31363234286972197,10.472939768307718,0.0,-0.0,40.0,0.0,0.0,3.099720348573066,0.0,-2.850831026549417,0.0
2.680000000000002,73.41982763980147,0.0,53.868553120418596,44.0872945112216,0.0,21.64090153019039,0.0,0.6280259356041493,0.0,0.0,-0.38736771281423804,0.0,19.880615384615236,longitudinal,48.86384704815432,48.86384704815432,0.14368037608507891,1454.9781725347013,1.2187402710916508,0.30859778588748815,10.187175463234281,0.0,-0.0,40.0,0.0,0.0,3.5406430007069805,0.0,1.281626356124401,0.0
2.700000000000002,74.3015735300259,0.0,54.3013711510224,44.34366022190662,0.0,21.671070093562975,0.0,0.6202785813478644,0.0,0.0,-0.3014528075305512,0.0,19.87076923076908,longitudinal,49.11230147690685,49.11230147690685,0.144411642616802,1469.7507188502505,1.2186895981489017,0.3026422824059585,9.838438665196758,0.0,-0.0,40.0,0.0,0.0,4.016764465127428,0.0,5.544363898748259,0.0
2.720000000000002,75.18844673446404,0.0,54.73479255289366,44.60016434010818,0.0,21.701538987814953,0.0,0.6142495251972533,0.0,0.0,-0.21314773472837023,0.0,19.860923076922926,longitudinal,49.35580493595482,49.35580493595482,0.14512835860296322,1484.2994250046092,1.2186388986820549,0.2969678387212659,9.494247740354476,0.0,-0.0,40.0,0.0,0.0,4.460655166405269,0.0,6.0,0.0
2.740000000000002,76.0804500212662,0.0,55.16882333264996,44.85821946390511,0.0,21.730606569715704,0.0,0.6099865705026861,0.0,0.0,-0.1289321991745067,0.0,19.85107692307677,longitudinal,49.599712233079636,49.599712233079636,0.14584627006468348,1498.943493990905,1.218588130154444,0.2930211943706984,9.247286806513673,0.0,-0.0,40.0,0.0,0.0,4.806094638282676,0.0,6.0,0.0
2.760000000000002,76.9776144105443,0.0,55.603435464044274,45.11736935879808,0.0,21.7586779489889,0.0,0.6074079265191958,0.0,0.0,-0.048706019516512836,0.0,19.841230769230616,longitudinal,49.84454950503261,49.84454950503261,0.14656692413903935,1513.7152264680199,1.2185372918692443,0.29076054909761523,9.102778907556175,0.0,-0.0,40.0,0.0,0.0,5.050343950536856,0.0,6.0,0.0
2.780000000000002,77.87996179772027,0.0,56.03860902302405,45.377184705799706,0.0,21.78614467333313,0.0,0.6064338061288654,0.0,0.0,0.02762863954310979,0.0,19.83138461538446,longitudinal,50.090089677959526,50.090089677959526,0.1472896531251768,1528.601580914643,1.2184863871158282,0.2900274043894837,9.055369906997562,0.0,-0.0,40.0,0.0,0.0,5.198089367657651,0.0,6.0,0.0
2.800000000000002,78.78750549183627,0.0,56.47433191649071,45.637258924243575,0.0,21.81338236426836,0.0,0.6069863789197276,0.0,0.0,0.10016737859385169,0.0,19.821538461538307,longitudinal,50.33612014797787,50.33612014797787,0.14801383187094055,1543.5901348858697,1.218435418234217,0.29071749937592967,9.0998624386229,0.0,-0.0,40.0,0.0,0.0,5.25390235476122,0.0,6.0,0.0
2.820000000000002,79.70025067032114,0.0,56.91059956377608,45.89720447982062,0.0,21.84074875962557,0.0,0.6089897264916049,0.0,0.0,0.1690036783062101,0.0,19.81169230769215,longitudinal,50.58243818054072,50.58243818054072,0.14873886424546845,1558.6688214237995,1.218384386647001,0.2927723084598172,9.23121249947794,0.0,-0.0,40.0,0.0,0.0,5.222242265971052,0.0,6.0,0.0
2.840000000000002,80.61819475991756,0.0,57.34741453896859,46.156649657596965,0.0,21.86858211250608,0.0,0.6123698000577291,0.0,0.0,0.2342290162327888,0.0,19.801846153845997,longitudinal,50.82884698125221,50.82884698125221,0.14946417158573075,1573.825699480674,1.2183332928967883,0.296171346985337,9.44452601194355,0.0,-0.0,40.0,0.0,0.0,5.1074589052047035,0.0,6.0,0.0
2.860000000000002,81.5413277530695,0.0,57.78478618121871,46.41523577738535,0.0,21.897199903631982,0.0,0.6170543803823847,0.0,0.0,0.2959329845692549,0.0,19.79199999999984,longitudinal,51.075152385730256,51.075152385730256,0.15018918296299094,1589.0487563816569,1.21828213668823,0.30092522907039015,9.735055405515704,0.0,-0.0,40.0,0.0,0.0,4.913794955422051,0.0,6.0,0.0
2.880000000000002,82.4696324686172,0.0,58.222730179291354,46.68365290133711,0.0,21.91372563969633,0.0,0.6229730400737696,0.0,0.0,0.3157790423026258,0.0,19.782153846153687,longitudinal,51.32116011831663,51.32116011831663,0.1509133271216424,1604.3257404249741,1.218230916933797,0.30706942459893205,10.09819625523366,0.0,-0.0,40.0,0.0,0.0,4.645388274029262,0.0,3.215659623156479,0.0
2.900000000000002,83.40330552664395,0.0,58.66100469208528,46.9645909414541,0.0,21.9130993358956,0.0,0.6292886209198221,0.0,0.0,0.28200971586845786,0.0,19.772307692307532,longitudinal,51.57106572123951,51.57106572123951,0.15164894142488214,1619.9199372606927,1.2181796318025477,0.3149905528711998,10.547944041429261,0.0,-0.0,40.0,0.0,0.0,4.3062740533387025,0.0,-0.5481463391892454,0.0
2.920000000000002,84.34259734547302,0.0,59.09926667880319,47.25696878599868,0.0,21.894572345072593,0.0,0.634928815237191,0.0,0.0,0.19694217043240458,0.0,19.762461538461377,longitudinal,51.82525180645956,51.82525180645956,0.1523971507483662,1635.859056033113,1.2181283096201903,0.3240973158805116,11.042405182225014,0.0,-0.0,40.0,0.0,0.0,3.9444179256862357,0.0,-4.328642026447396,0.0
2.940000000000002,85.287736721193,0.0,59.53715812570464,47.55344259797056,0.0,21.86862385643716,0.0,0.638867658645839,0.0,0.0,0.09694217043240458,0.0,19.752615384615222,longitudinal,52.08256327231285,52.08256327231285,0.1531545579895413,1652.0738008224619,1.2180769905587499,0.3332901559743422,11.520034031406505,0.0,-0.0,40.0,0.0,0.0,3.6212585956673244,0.0,-6.0,0.0
2.960000000000002,86.2388055731524,0.0,59.97453060283338,47.849039574195984,0.0,21.84364417842945,0.0,0.6408065020544873,0.0,0.0,-0.003057829567595427,0.0,19.742769230769067,longitudinal,52.34086942622193,52.34086942622193,0.15391489709335762,1668.43129297114,1.2180257165382717,0.34104228053292096,11.907917203000078,0.0,-0.0,40.0,0.0,0.0,3.3955794921888693,0.0,-6.0,0.0
2.980000000000002,87.19578636463632,0.0,60.41140348640197,48.14417315299138,0.0,21.819094528975473,0.0,0.6407453454631353,0.0,0.0,-0.09907309415584498,0.0,19.732923076922912,longitudinal,52.599195613305795,52.599195613305795,0.1546753017253269,1684.87003762661,1.2179745049337978,0.34659741528346544,12.17825777467008,0.0,-0.0,40.0,0.0,0.0,3.2844919477365666,0.0,-6.0,0.0
3.000000000000002,88.15866982769614,0.0,60.847785376981484,48.43926699219727,0.0,21.79444076024107,0.0,0.6387638835800185,0.0,0.0,-0.1907780103681461,0.0,19.723076923076757,longitudinal,52.857679618477235,52.857679618477235,0.1554361770849405,1701.3989127583336,1.21792335347079,0.34980895721242333,12.331817062812627,0.0,-0.0,40.0,0.0,0.0,3.2879959623104407,0.0,-6.0,0.0
3.0200000000000022,89.12745516754009,0.0,61.283674192186304,48.73473234162583,0.0,21.769171515258122,0.0,0.6349483233726554,0.0,0.0,-0.27826002054660876,0.0,19.713230769230602,longitudinal,53.11647799687992,53.11647799687992,0.1561979835583695,1718.028184314167,1.217872261136621,0.3506972139584328,12.373905977127379,0.0,-0.0,40.0,0.0,0.0,3.401525365479082,0.0,-6.0,0.0
3.0400000000000023,90.10214981437261,0.0,61.71905762249147,49.0307207742744,0.0,21.74320701973646,0.0,0.6293831229617233,0.0,0.0,-0.3605490547328088,0.0,19.703384615384447,longitudinal,53.37575259301396,53.37575259301396,0.1569611970765162,1734.7686597290265,1.2178212281695173,0.34935658521452384,12.310164475603797,0.0,-0.0,40.0,0.0,0.0,3.620140861839047,0.0,-5.9233096270368835,0.0
3.0600000000000023,91.0827642298581,0.0,62.1539217628862,49.3173149114876,0.0,21.732683082112487,0.0,0.6221721418670674,0.0,0.0,-0.3942808743005601,0.0,19.693538461538292,longitudinal,53.635609730364585,53.635609730364585,0.15772613029078522,1751.6277250613864,1.2177702560049943,0.3459249674930897,12.145582984993453,0.0,-0.0,40.0,0.0,0.0,3.939003357529929,0.0,-2.6959084928328125,0.0
3.0800000000000023,92.06911052808785,0.0,62.58857542452845,49.59135468688142,0.0,21.74049838811919,0.0,0.6142865243810562,0.0,0.0,-0.37103046661475036,0.0,19.683692307692137,longitudinal,53.89347886364709,53.89347886364709,0.15848522395409073,1768.4372216143856,1.2177193462651716,0.3402038632900245,11.866168313954956,0.0,-0.0,40.0,0.0,0.0,4.352162140402338,0.0,1.2900961954247272,0.0
3.1000000000000023,93.06093762182547,0.0,63.023385392290834,49.85125951993604,0.0,21.766469663260512,0.0,0.6068659150487612,0.0,0.0,-0.2912905447693971,0.0,19.673846153845982,longitudinal,54.147499756165,54.147499756165,0.15923300807443036,1785.0725779315144,1.217668462793254,0.3333734561482873,11.523720687179498,0.0,-0.0,40.0,0.0,0.0,4.803974741205338,0.0,5.439232853533449,0.0
3.1200000000000023,94.05796281222419,0.0,63.45871478555605,50.110846497474974,0.0,21.79335669843812,0.0,0.6010401041533733,0.0,0.0,-0.20737836115985814,0.0,19.663999999999827,longitudinal,54.396022624137274,54.396022624137274,0.15996463155533464,1801.4209097388239,1.217617562650603,0.3267839054887592,11.183413168951498,0.0,-0.0,40.0,0.0,0.0,5.2291443373612365,0.0,6.0,0.0
3.1400000000000023,95.06017974217369,0.0,63.89458191952481,50.371961073751166,0.0,21.818885680826476,0.0,0.5968925369301763,0.0,0.0,-0.1273185209095148,0.0,19.654153846153672,longitudinal,54.64473746737976,54.64473746737976,0.16069682772151753,1817.8557542426613,1.21756660333315,0.3220558943073757,10.932695345536914,0.0,-0.0,40.0,0.0,0.0,5.562938713908295,0.0,6.0,0.0
3.1600000000000024,96.06761896364871,0.0,64.33095963314133,50.63415379178356,0.0,21.843437618330935,0.0,0.5943461665119862,0.0,0.0,-0.051036937521812736,0.0,19.644307692307517,longitudinal,54.894428084902,54.894428084902,0.1614319016005942,1834.4296538599233,1.2175155827028379,0.31921689741114884,10.779315262137303,0.0,-0.0,40.0,0.0,0.0,5.800576811044277,0.0,6.0,0.0
3.1800000000000024,97.08030203948438,0.0,64.76782838550795,50.897001520228,0.0,21.86738082124612,0.0,0.5933254277615498,0.0,0.0,0.021539901670228248,0.0,19.634461538461363,longitudinal,55.14483926167438,55.14483926167438,0.16216910266630863,1851.1263487450801,1.2174645039448806,0.3180993751761779,10.718289638479455,0.0,-0.0,40.0,0.0,0.0,5.946473089083529,0.0,6.0,0.0
